[
  {
    "city": "Tokyo",
    "state": "Tōkyō",
    "country": "Japan",
    "latlong": "35.6897,139.6922"
  },
  {
    "city": "Jakarta",
    "state": "Jakarta",
    "country": "Indonesia",
    "latlong": "-6.2146,106.8451"
  },
  {
    "city": "Delhi",
    "state": "Delhi",
    "country": "India",
    "latlong": "28.66,77.23"
  },
  {
    "city": "Mumbai",
    "state": "Mahārāshtra",
    "country": "India",
    "latlong": "18.9667,72.8333"
  },
  {
    "city": "Manila",
    "state": "Manila",
    "country": "Philippines",
    "latlong": "14.5958,120.9772"
  },
  {
    "city": "Shanghai",
    "state": "Shanghai",
    "country": "China",
    "latlong": "31.1667,121.4667"
  },
  {
    "city": "São Paulo",
    "state": "São Paulo",
    "country": "Brazil",
    "latlong": "-23.5504,-46.6339"
  },
  {
    "city": "Seoul",
    "state": "Seoul",
    "country": "Korea, South",
    "latlong": "37.5833,127"
  },
  {
    "city": "Mexico City",
    "state": "Ciudad de México",
    "country": "Mexico",
    "latlong": "19.4333,-99.1333"
  },
  {
    "city": "Guangzhou",
    "state": "Guangdong",
    "country": "China",
    "latlong": "23.1288,113.259"
  },
  {
    "city": "Beijing",
    "state": "Beijing",
    "country": "China",
    "latlong": "39.905,116.3914"
  },
  {
    "city": "Cairo",
    "state": "Al Qāhirah",
    "country": "Egypt",
    "latlong": "30.0561,31.2394"
  },
  {
    "city": "New York",
    "state": "New York",
    "country": "United States",
    "latlong": "40.6943,-73.9249"
  },
  {
    "city": "Kolkāta",
    "state": "West Bengal",
    "country": "India",
    "latlong": "22.5411,88.3378"
  },
  {
    "city": "Moscow",
    "state": "Moskva",
    "country": "Russia",
    "latlong": "55.7558,37.6178"
  },
  {
    "city": "Bangkok",
    "state": "Krung Thep Maha Nakhon",
    "country": "Thailand",
    "latlong": "13.75,100.5167"
  },
  {
    "city": "Buenos Aires",
    "state": "Buenos Aires, Ciudad Autónoma de",
    "country": "Argentina",
    "latlong": "-34.5997,-58.3819"
  },
  {
    "city": "Shenzhen",
    "state": "Guangdong",
    "country": "China",
    "latlong": "22.535,114.054"
  },
  {
    "city": "Dhaka",
    "state": "Dhaka",
    "country": "Bangladesh",
    "latlong": "23.7161,90.3961"
  },
  {
    "city": "Lagos",
    "state": "Lagos",
    "country": "Nigeria",
    "latlong": "6.45,3.4"
  },
  {
    "city": "Istanbul",
    "state": "İstanbul",
    "country": "Turkey",
    "latlong": "41.01,28.9603"
  },
  {
    "city": "Ōsaka",
    "state": "Ōsaka",
    "country": "Japan",
    "latlong": "34.6936,135.5019"
  },
  {
    "city": "Karachi",
    "state": "Sindh",
    "country": "Pakistan",
    "latlong": "24.86,67.01"
  },
  {
    "city": "Bangalore",
    "state": "Karnātaka",
    "country": "India",
    "latlong": "12.9699,77.598"
  },
  {
    "city": "Tehran",
    "state": "Tehrān",
    "country": "Iran",
    "latlong": "35.7,51.4167"
  },
  {
    "city": "Kinshasa",
    "state": "Kinshasa",
    "country": "Congo (Kinshasa)",
    "latlong": "-4.3317,15.3139"
  },
  {
    "city": "Ho Chi Minh City",
    "state": "Hồ Chí Minh",
    "country": "Vietnam",
    "latlong": "10.8167,106.6333"
  },
  {
    "city": "Los Angeles",
    "state": "California",
    "country": "United States",
    "latlong": "34.1139,-118.4068"
  },
  {
    "city": "Rio de Janeiro",
    "state": "Rio de Janeiro",
    "country": "Brazil",
    "latlong": "-22.9083,-43.1964"
  },
  {
    "city": "Nanyang",
    "state": "Henan",
    "country": "China",
    "latlong": "32.9987,112.5292"
  },
  {
    "city": "Chennai",
    "state": "Tamil Nādu",
    "country": "India",
    "latlong": "13.0825,80.275"
  },
  {
    "city": "Chengdu",
    "state": "Sichuan",
    "country": "China",
    "latlong": "30.6636,104.0667"
  },
  {
    "city": "Lahore",
    "state": "Punjab",
    "country": "Pakistan",
    "latlong": "31.5497,74.3436"
  },
  {
    "city": "Paris",
    "state": "Île-de-France",
    "country": "France",
    "latlong": "48.8566,2.3522"
  },
  {
    "city": "London",
    "state": "London, City of",
    "country": "United Kingdom",
    "latlong": "51.5072,-0.1275"
  },
  {
    "city": "Linyi",
    "state": "Shandong",
    "country": "China",
    "latlong": "35.0606,118.3425"
  },
  {
    "city": "Tianjin",
    "state": "Tianjin",
    "country": "China",
    "latlong": "39.1467,117.2056"
  },
  {
    "city": "Shijiazhuang",
    "state": "Hebei",
    "country": "China",
    "latlong": "38.0422,114.5086"
  },
  {
    "city": "Baoding",
    "state": "Hebei",
    "country": "China",
    "latlong": "38.8671,115.4845"
  },
  {
    "city": "Zhoukou",
    "state": "Henan",
    "country": "China",
    "latlong": "33.625,114.6418"
  },
  {
    "city": "Lima",
    "state": "Lima",
    "country": "Peru",
    "latlong": "-12.05,-77.0333"
  },
  {
    "city": "Hyderābād",
    "state": "Telangana",
    "country": "India",
    "latlong": "17.3667,78.4667"
  },
  {
    "city": "Bogotá",
    "state": "Bogotá",
    "country": "Colombia",
    "latlong": "4.6126,-74.0705"
  },
  {
    "city": "Weifang",
    "state": "Shandong",
    "country": "China",
    "latlong": "36.7167,119.1"
  },
  {
    "city": "Nagoya",
    "state": "Aichi",
    "country": "Japan",
    "latlong": "35.1167,136.9333"
  },
  {
    "city": "Wuhan",
    "state": "Hubei",
    "country": "China",
    "latlong": "30.5872,114.2881"
  },
  {
    "city": "Heze",
    "state": "Shandong",
    "country": "China",
    "latlong": "35.2333,115.4333"
  },
  {
    "city": "Ganzhou",
    "state": "Jiangxi",
    "country": "China",
    "latlong": "25.8292,114.9336"
  },
  {
    "city": "Tongshan",
    "state": "Jiangsu",
    "country": "China",
    "latlong": "34.261,117.1859"
  },
  {
    "city": "Chicago",
    "state": "Illinois",
    "country": "United States",
    "latlong": "41.8373,-87.6862"
  },
  {
    "city": "Handan",
    "state": "Hebei",
    "country": "China",
    "latlong": "36.6116,114.4894"
  },
  {
    "city": "Luanda",
    "state": "Luanda",
    "country": "Angola",
    "latlong": "-8.8383,13.2344"
  },
  {
    "city": "Fuyang",
    "state": "Anhui",
    "country": "China",
    "latlong": "32.8986,115.8045"
  },
  {
    "city": "Kuala Lumpur",
    "state": "Kuala Lumpur",
    "country": "Malaysia",
    "latlong": "3.1478,101.6953"
  },
  {
    "city": "Jining",
    "state": "Shandong",
    "country": "China",
    "latlong": "35.4,116.5667"
  },
  {
    "city": "Dongguan",
    "state": "Guangdong",
    "country": "China",
    "latlong": "23.0475,113.7493"
  },
  {
    "city": "Hanoi",
    "state": "Hà Nội",
    "country": "Vietnam",
    "latlong": "21.0245,105.8412"
  },
  {
    "city": "Pune",
    "state": "Mahārāshtra",
    "country": "India",
    "latlong": "18.5196,73.8553"
  },
  {
    "city": "Chongqing",
    "state": "Chongqing",
    "country": "China",
    "latlong": "29.55,106.5069"
  },
  {
    "city": "Changchun",
    "state": "Jilin",
    "country": "China",
    "latlong": "43.9,125.2"
  },
  {
    "city": "Zhumadian",
    "state": "Henan",
    "country": "China",
    "latlong": "32.9773,114.0253"
  },
  {
    "city": "Ningbo",
    "state": "Zhejiang",
    "country": "China",
    "latlong": "29.875,121.5492"
  },
  {
    "city": "Onitsha",
    "state": "Anambra",
    "country": "Nigeria",
    "latlong": "6.1667,6.7833"
  },
  {
    "city": "Nanjing",
    "state": "Jiangsu",
    "country": "China",
    "latlong": "32.05,118.7667"
  },
  {
    "city": "Hefei",
    "state": "Anhui",
    "country": "China",
    "latlong": "31.8639,117.2808"
  },
  {
    "city": "Ahmadābād",
    "state": "Gujarāt",
    "country": "India",
    "latlong": "23.03,72.58"
  },
  {
    "city": "Hong Kong",
    "state": "",
    "country": "Hong Kong",
    "latlong": "22.305,114.185"
  },
  {
    "city": "Khartoum",
    "state": "Khartoum",
    "country": "Sudan",
    "latlong": "15.6031,32.5265"
  },
  {
    "city": "Nantong",
    "state": "Jiangsu",
    "country": "China",
    "latlong": "31.9829,120.8873"
  },
  {
    "city": "Yancheng",
    "state": "Jiangsu",
    "country": "China",
    "latlong": "33.3936,120.1339"
  },
  {
    "city": "Foshan",
    "state": "Guangdong",
    "country": "China",
    "latlong": "23.0292,113.1056"
  },
  {
    "city": "Nanning",
    "state": "Guangxi",
    "country": "China",
    "latlong": "22.8192,108.315"
  },
  {
    "city": "Hengyang",
    "state": "Hunan",
    "country": "China",
    "latlong": "26.8968,112.5857"
  },
  {
    "city": "Xi’an",
    "state": "Shaanxi",
    "country": "China",
    "latlong": "34.2667,108.9"
  },
  {
    "city": "Shenyang",
    "state": "Liaoning",
    "country": "China",
    "latlong": "41.8039,123.4258"
  },
  {
    "city": "Tangshan",
    "state": "Hebei",
    "country": "China",
    "latlong": "39.6292,118.1742"
  },
  {
    "city": "Shaoyang",
    "state": "Hunan",
    "country": "China",
    "latlong": "27.2418,111.4725"
  },
  {
    "city": "Changsha",
    "state": "Hunan",
    "country": "China",
    "latlong": "28.1987,112.9709"
  },
  {
    "city": "Santiago",
    "state": "Región Metropolitana",
    "country": "Chile",
    "latlong": "-33.45,-70.6667"
  },
  {
    "city": "Zhengzhou",
    "state": "Henan",
    "country": "China",
    "latlong": "34.7492,113.6605"
  },
  {
    "city": "Zhanjiang",
    "state": "Guangdong",
    "country": "China",
    "latlong": "21.1967,110.4031"
  },
  {
    "city": "Riyadh",
    "state": "Ar Riyāḑ",
    "country": "Saudi Arabia",
    "latlong": "24.65,46.71"
  },
  {
    "city": "Cangzhou",
    "state": "Hebei",
    "country": "China",
    "latlong": "38.3037,116.8452"
  },
  {
    "city": "Dar es Salaam",
    "state": "Dar es Salaam",
    "country": "Tanzania",
    "latlong": "-6.8,39.2833"
  },
  {
    "city": "Maoming",
    "state": "Guangdong",
    "country": "China",
    "latlong": "21.6618,110.9178"
  },
  {
    "city": "Huanggang",
    "state": "Hubei",
    "country": "China",
    "latlong": "30.45,114.875"
  },
  {
    "city": "Xinyang",
    "state": "Henan",
    "country": "China",
    "latlong": "32.1264,114.0672"
  },
  {
    "city": "Shangrao",
    "state": "Jiangxi",
    "country": "China",
    "latlong": "28.4419,117.9633"
  },
  {
    "city": "Luoyang",
    "state": "Henan",
    "country": "China",
    "latlong": "34.6587,112.4245"
  },
  {
    "city": "Bijie",
    "state": "Guizhou",
    "country": "China",
    "latlong": "27.3019,105.2863"
  },
  {
    "city": "Yantai",
    "state": "Shandong",
    "country": "China",
    "latlong": "37.3997,121.2664"
  },
  {
    "city": "Quanzhou",
    "state": "Fujian",
    "country": "China",
    "latlong": "24.9139,118.5858"
  },
  {
    "city": "Hangzhou",
    "state": "Zhejiang",
    "country": "China",
    "latlong": "30.25,120.1675"
  },
  {
    "city": "Miami",
    "state": "Florida",
    "country": "United States",
    "latlong": "25.7839,-80.2102"
  },
  {
    "city": "Kunming",
    "state": "Yunnan",
    "country": "China",
    "latlong": "25.0433,102.7061"
  },
  {
    "city": "Nanchong",
    "state": "Sichuan",
    "country": "China",
    "latlong": "30.7991,106.0784"
  },
  {
    "city": "Zunyi",
    "state": "Guizhou",
    "country": "China",
    "latlong": "27.705,106.9336"
  },
  {
    "city": "Lu’an",
    "state": "Anhui",
    "country": "China",
    "latlong": "31.7542,116.5078"
  },
  {
    "city": "Yichun",
    "state": "Jiangxi",
    "country": "China",
    "latlong": "27.8041,114.383"
  },
  {
    "city": "Taizhou",
    "state": "Zhejiang",
    "country": "China",
    "latlong": "28.6583,121.4221"
  },
  {
    "city": "Liaocheng",
    "state": "Shandong",
    "country": "China",
    "latlong": "36.45,115.9833"
  },
  {
    "city": "Qujing",
    "state": "Yunnan",
    "country": "China",
    "latlong": "25.5102,103.8029"
  },
  {
    "city": "Xiangyang",
    "state": "Hubei",
    "country": "China",
    "latlong": "32.0654,112.1531"
  },
  {
    "city": "Sūrat",
    "state": "Gujarāt",
    "country": "India",
    "latlong": "21.17,72.83"
  },
  {
    "city": "Baghdad",
    "state": "Baghdād",
    "country": "Iraq",
    "latlong": "33.35,44.4167"
  },
  {
    "city": "Qingdao",
    "state": "Shandong",
    "country": "China",
    "latlong": "36.1167,120.4"
  },
  {
    "city": "Singapore",
    "state": "Central Singapore",
    "country": "Singapore",
    "latlong": "1.3,103.8"
  },
  {
    "city": "Dallas",
    "state": "Texas",
    "country": "United States",
    "latlong": "32.7936,-96.7662"
  },
  {
    "city": "Changde",
    "state": "Hunan",
    "country": "China",
    "latlong": "29.0397,111.6839"
  },
  {
    "city": "Dazhou",
    "state": "Sichuan",
    "country": "China",
    "latlong": "31.2152,107.4947"
  },
  {
    "city": "Suzhou",
    "state": "Anhui",
    "country": "China",
    "latlong": "33.6333,116.9683"
  },
  {
    "city": "Philadelphia",
    "state": "Pennsylvania",
    "country": "United States",
    "latlong": "40.0077,-75.1339"
  },
  {
    "city": "Jieyang",
    "state": "Guangdong",
    "country": "China",
    "latlong": "23.5533,116.3649"
  },
  {
    "city": "Nairobi",
    "state": "Nairobi City",
    "country": "Kenya",
    "latlong": "-1.2864,36.8172"
  },
  {
    "city": "Nangandao",
    "state": "Henan",
    "country": "China",
    "latlong": "35.2992,113.8851"
  },
  {
    "city": "Ankara",
    "state": "Ankara",
    "country": "Turkey",
    "latlong": "39.93,32.85"
  },
  {
    "city": "Tai’an",
    "state": "Shandong",
    "country": "China",
    "latlong": "36.2001,117.0809"
  },
  {
    "city": "Yulin",
    "state": "Guangxi",
    "country": "China",
    "latlong": "22.6293,110.1507"
  },
  {
    "city": "Dezhou",
    "state": "Shandong",
    "country": "China",
    "latlong": "37.4513,116.3105"
  },
  {
    "city": "Houston",
    "state": "Texas",
    "country": "United States",
    "latlong": "29.7863,-95.3889"
  },
  {
    "city": "Atlanta",
    "state": "Georgia",
    "country": "United States",
    "latlong": "33.7627,-84.4224"
  },
  {
    "city": "Rangoon",
    "state": "Yangon",
    "country": "Burma",
    "latlong": "16.8,96.15"
  },
  {
    "city": "Toronto",
    "state": "Ontario",
    "country": "Canada",
    "latlong": "43.7417,-79.3733"
  },
  {
    "city": "Suihua",
    "state": "Heilongjiang",
    "country": "China",
    "latlong": "46.6384,126.9808"
  },
  {
    "city": "Washington",
    "state": "District of Columbia",
    "country": "United States",
    "latlong": "38.9047,-77.0163"
  },
  {
    "city": "Qiqihar",
    "state": "Heilongjiang",
    "country": "China",
    "latlong": "47.3398,123.9512"
  },
  {
    "city": "Jinhua",
    "state": "Zhejiang",
    "country": "China",
    "latlong": "29.1046,119.6494"
  },
  {
    "city": "Saint Petersburg",
    "state": "Sankt-Peterburg",
    "country": "Russia",
    "latlong": "59.95,30.3167"
  },
  {
    "city": "Shantou",
    "state": "Guangdong",
    "country": "China",
    "latlong": "23.3735,116.6941"
  },
  {
    "city": "Sydney",
    "state": "New South Wales",
    "country": "Australia",
    "latlong": "-33.865,151.2094"
  },
  {
    "city": "Weinan",
    "state": "Shaanxi",
    "country": "China",
    "latlong": "34.4996,109.4684"
  },
  {
    "city": "Suqian",
    "state": "Jiangsu",
    "country": "China",
    "latlong": "33.9331,118.2831"
  },
  {
    "city": "Guadalajara",
    "state": "Jalisco",
    "country": "Mexico",
    "latlong": "20.6767,-103.3475"
  },
  {
    "city": "Suzhou",
    "state": "Jiangsu",
    "country": "China",
    "latlong": "31.304,120.6164"
  },
  {
    "city": "Fuzhou",
    "state": "Fujian",
    "country": "China",
    "latlong": "26.0769,119.2917"
  },
  {
    "city": "Zhaotong",
    "state": "Yunnan",
    "country": "China",
    "latlong": "27.3328,103.7144"
  },
  {
    "city": "Pudong",
    "state": "Shanghai",
    "country": "China",
    "latlong": "31.2231,121.5397"
  },
  {
    "city": "Yongzhou",
    "state": "Hunan",
    "country": "China",
    "latlong": "26.4515,111.5953"
  },
  {
    "city": "Belo Horizonte",
    "state": "Minas Gerais",
    "country": "Brazil",
    "latlong": "-19.8917,-43.9478"
  },
  {
    "city": "Zhangzhou",
    "state": "Fujian",
    "country": "China",
    "latlong": "24.5093,117.6612"
  },
  {
    "city": "Bozhou",
    "state": "Anhui",
    "country": "China",
    "latlong": "33.8626,115.7742"
  },
  {
    "city": "Melbourne",
    "state": "Victoria",
    "country": "Australia",
    "latlong": "-37.8136,144.9631"
  },
  {
    "city": "Nanchang",
    "state": "Jiangxi",
    "country": "China",
    "latlong": "28.6842,115.8872"
  },
  {
    "city": "Xianyang",
    "state": "Shaanxi",
    "country": "China",
    "latlong": "34.35,108.7167"
  },
  {
    "city": "Taizhou",
    "state": "Jiangsu",
    "country": "China",
    "latlong": "32.4831,119.9"
  },
  {
    "city": "Surabaya",
    "state": "Jawa Timur",
    "country": "Indonesia",
    "latlong": "-7.2458,112.7378"
  },
  {
    "city": "Abidjan",
    "state": "Abidjan",
    "country": "Côte D’Ivoire",
    "latlong": "5.3364,-4.0267"
  },
  {
    "city": "Ji’an",
    "state": "Jiangxi",
    "country": "China",
    "latlong": "27.1172,114.9793"
  },
  {
    "city": "Mianyang",
    "state": "Sichuan",
    "country": "China",
    "latlong": "31.4669,104.7385"
  },
  {
    "city": "Shaoxing",
    "state": "Zhejiang",
    "country": "China",
    "latlong": "30,120.5833"
  },
  {
    "city": "Alexandria",
    "state": "Al Iskandarīyah",
    "country": "Egypt",
    "latlong": "31.2,29.9167"
  },
  {
    "city": "Yuncheng",
    "state": "Shanxi",
    "country": "China",
    "latlong": "35.0304,110.998"
  },
  {
    "city": "Pingdingshan",
    "state": "Henan",
    "country": "China",
    "latlong": "33.735,113.2999"
  },
  {
    "city": "Huai’an",
    "state": "Jiangsu",
    "country": "China",
    "latlong": "33.5,119.1331"
  },
  {
    "city": "Xinpu",
    "state": "Jiangsu",
    "country": "China",
    "latlong": "34.5906,119.1801"
  },
  {
    "city": "Guilin",
    "state": "Guangxi",
    "country": "China",
    "latlong": "25.2667,110.2833"
  },
  {
    "city": "Huaihua",
    "state": "Hunan",
    "country": "China",
    "latlong": "27.5494,109.9592"
  },
  {
    "city": "Jiujiang",
    "state": "Jiangxi",
    "country": "China",
    "latlong": "29.7048,116.0021"
  },
  {
    "city": "Anqing",
    "state": "Anhui",
    "country": "China",
    "latlong": "30.5,117.0333"
  },
  {
    "city": "Boston",
    "state": "Massachusetts",
    "country": "United States",
    "latlong": "42.3188,-71.0846"
  },
  {
    "city": "Huanglongsi",
    "state": "Henan",
    "country": "China",
    "latlong": "34.7936,114.3403"
  },
  {
    "city": "Xiaoganzhan",
    "state": "Hubei",
    "country": "China",
    "latlong": "30.9273,113.911"
  },
  {
    "city": "Changzhou",
    "state": "Jiangsu",
    "country": "China",
    "latlong": "31.8122,119.9692"
  },
  {
    "city": "Barcelona",
    "state": "Catalonia",
    "country": "Spain",
    "latlong": "41.3825,2.1769"
  },
  {
    "city": "Chenzhou",
    "state": "Hunan",
    "country": "China",
    "latlong": "25.7989,113.0267"
  },
  {
    "city": "Wuxi",
    "state": "Jiangsu",
    "country": "China",
    "latlong": "31.5667,120.2833"
  },
  {
    "city": "Zibo",
    "state": "Shandong",
    "country": "China",
    "latlong": "36.7831,118.0497"
  },
  {
    "city": "Jiaxing",
    "state": "Zhejiang",
    "country": "China",
    "latlong": "30.7522,120.75"
  },
  {
    "city": "Dalian",
    "state": "Liaoning",
    "country": "China",
    "latlong": "38.9131,121.61"
  },
  {
    "city": "Harbin",
    "state": "Heilongjiang",
    "country": "China",
    "latlong": "45.75,126.6333"
  },
  {
    "city": "Yangzhou",
    "state": "Jiangsu",
    "country": "China",
    "latlong": "32.3912,119.4363"
  },
  {
    "city": "Yibin",
    "state": "Sichuan",
    "country": "China",
    "latlong": "28.7596,104.64"
  },
  {
    "city": "Jiangmen",
    "state": "Guangdong",
    "country": "China",
    "latlong": "22.5833,113.0833"
  },
  {
    "city": "Johannesburg",
    "state": "Gauteng",
    "country": "South Africa",
    "latlong": "-26.2044,28.0416"
  },
  {
    "city": "Meizhou",
    "state": "Guangdong",
    "country": "China",
    "latlong": "24.2998,116.1191"
  },
  {
    "city": "Chifeng",
    "state": "Inner Mongolia",
    "country": "China",
    "latlong": "42.2663,118.9223"
  },
  {
    "city": "Casablanca",
    "state": "Casablanca-Settat",
    "country": "Morocco",
    "latlong": "33.5992,-7.62"
  },
  {
    "city": "Guiyang",
    "state": "Guizhou",
    "country": "China",
    "latlong": "26.5794,106.7078"
  },
  {
    "city": "Langfang",
    "state": "Hebei",
    "country": "China",
    "latlong": "39.5196,116.7006"
  },
  {
    "city": "Zhangjiakou",
    "state": "Hebei",
    "country": "China",
    "latlong": "40.8108,114.8811"
  },
  {
    "city": "İzmir",
    "state": "İzmir",
    "country": "Turkey",
    "latlong": "38.4127,27.1384"
  },
  {
    "city": "Linfen",
    "state": "Shanxi",
    "country": "China",
    "latlong": "36.0812,111.5087"
  },
  {
    "city": "Wenzhou",
    "state": "Zhejiang",
    "country": "China",
    "latlong": "27.9991,120.6561"
  },
  {
    "city": "Monterrey",
    "state": "Nuevo León",
    "country": "Mexico",
    "latlong": "25.6667,-100.3"
  },
  {
    "city": "Luzhou",
    "state": "Sichuan",
    "country": "China",
    "latlong": "28.8918,105.4409"
  },
  {
    "city": "Jiangguanchi",
    "state": "Henan",
    "country": "China",
    "latlong": "34.0244,113.8201"
  },
  {
    "city": "Neijiang",
    "state": "Sichuan",
    "country": "China",
    "latlong": "29.5872,105.0635"
  },
  {
    "city": "Phoenix",
    "state": "Arizona",
    "country": "United States",
    "latlong": "33.5722,-112.0891"
  },
  {
    "city": "Yanjiang",
    "state": "Sichuan",
    "country": "China",
    "latlong": "30.1256,104.6397"
  },
  {
    "city": "Yiyang",
    "state": "Hunan",
    "country": "China",
    "latlong": "28.5833,112.3333"
  },
  {
    "city": "Zhaoqing",
    "state": "Guangdong",
    "country": "China",
    "latlong": "23.047,112.465"
  },
  {
    "city": "Hengshui",
    "state": "Hebei",
    "country": "China",
    "latlong": "37.7348,115.686"
  },
  {
    "city": "Guigang",
    "state": "Guangxi",
    "country": "China",
    "latlong": "23.0961,109.6092"
  },
  {
    "city": "Xiaoxita",
    "state": "Hubei",
    "country": "China",
    "latlong": "30.7083,111.2803"
  },
  {
    "city": "Xiamen",
    "state": "Fujian",
    "country": "China",
    "latlong": "24.4797,118.0819"
  },
  {
    "city": "Chuzhou",
    "state": "Anhui",
    "country": "China",
    "latlong": "32.3062,118.3115"
  },
  {
    "city": "Fuzhou",
    "state": "Jiangxi",
    "country": "China",
    "latlong": "27.9814,116.3577"
  },
  {
    "city": "Amman",
    "state": "Al ‘Āşimah",
    "country": "Jordan",
    "latlong": "31.95,35.9333"
  },
  {
    "city": "Jeddah",
    "state": "Makkah al Mukarramah",
    "country": "Saudi Arabia",
    "latlong": "21.5428,39.1728"
  },
  {
    "city": "Sialkot City",
    "state": "Punjab",
    "country": "Pakistan",
    "latlong": "32.5,74.5333"
  },
  {
    "city": "Huizhou",
    "state": "Guangdong",
    "country": "China",
    "latlong": "23.1115,114.4152"
  },
  {
    "city": "Qingyuan",
    "state": "Guangdong",
    "country": "China",
    "latlong": "23.6842,113.0507"
  },
  {
    "city": "Zhuzhou",
    "state": "Hunan",
    "country": "China",
    "latlong": "27.8407,113.1469"
  },
  {
    "city": "Wuhu",
    "state": "Anhui",
    "country": "China",
    "latlong": "31.334,118.3622"
  },
  {
    "city": "Hechi",
    "state": "Guangxi",
    "country": "China",
    "latlong": "23.0965,109.6091"
  },
  {
    "city": "Seattle",
    "state": "Washington",
    "country": "United States",
    "latlong": "47.6211,-122.3244"
  },
  {
    "city": "Loudi",
    "state": "Hunan",
    "country": "China",
    "latlong": "27.7378,111.9974"
  },
  {
    "city": "Binzhou",
    "state": "Shandong",
    "country": "China",
    "latlong": "37.3806,118.0125"
  },
  {
    "city": "Liuzhou",
    "state": "Guangxi",
    "country": "China",
    "latlong": "24.3181,109.4069"
  },
  {
    "city": "Yokohama",
    "state": "Kanagawa",
    "country": "Japan",
    "latlong": "35.4333,139.6333"
  },
  {
    "city": "Baojishi",
    "state": "Shaanxi",
    "country": "China",
    "latlong": "34.3609,107.1751"
  },
  {
    "city": "Guang’an",
    "state": "Sichuan",
    "country": "China",
    "latlong": "30.4673,106.6336"
  },
  {
    "city": "Hanzhong",
    "state": "Shaanxi",
    "country": "China",
    "latlong": "33.0794,107.026"
  },
  {
    "city": "Kabul",
    "state": "Kābul",
    "country": "Afghanistan",
    "latlong": "34.5328,69.1658"
  },
  {
    "city": "Zaozhuang",
    "state": "Shandong",
    "country": "China",
    "latlong": "34.8667,117.55"
  },
  {
    "city": "Berlin",
    "state": "Berlin",
    "country": "Germany",
    "latlong": "52.5167,13.3833"
  },
  {
    "city": "Anshan",
    "state": "Liaoning",
    "country": "China",
    "latlong": "41.1066,122.9895"
  },
  {
    "city": "Deyang",
    "state": "Sichuan",
    "country": "China",
    "latlong": "31.1289,104.395"
  },
  {
    "city": "Lanzhou",
    "state": "Gansu",
    "country": "China",
    "latlong": "36.0617,103.8318"
  },
  {
    "city": "Chengde",
    "state": "Hebei",
    "country": "China",
    "latlong": "40.9739,117.9322"
  },
  {
    "city": "San Francisco",
    "state": "California",
    "country": "United States",
    "latlong": "37.7562,-122.443"
  },
  {
    "city": "Puyang",
    "state": "Henan",
    "country": "China",
    "latlong": "35.7639,115.03"
  },
  {
    "city": "Suining",
    "state": "Sichuan",
    "country": "China",
    "latlong": "30.5098,105.5737"
  },
  {
    "city": "Jiaozuo",
    "state": "Henan",
    "country": "China",
    "latlong": "35.229,113.2304"
  },
  {
    "city": "Bengbu",
    "state": "Anhui",
    "country": "China",
    "latlong": "32.9354,117.3531"
  },
  {
    "city": "Montréal",
    "state": "Quebec",
    "country": "Canada",
    "latlong": "45.5089,-73.5617"
  },
  {
    "city": "Detroit",
    "state": "Michigan",
    "country": "United States",
    "latlong": "42.3834,-83.1024"
  },
  {
    "city": "Baicheng",
    "state": "Guangxi",
    "country": "China",
    "latlong": "23.901,106.6194"
  },
  {
    "city": "Busan",
    "state": "Busan",
    "country": "Korea, South",
    "latlong": "35.1,129.0403"
  },
  {
    "city": "Algiers",
    "state": "Alger",
    "country": "Algeria",
    "latlong": "36.7764,3.0586"
  },
  {
    "city": "Qincheng",
    "state": "Gansu",
    "country": "China",
    "latlong": "34.5809,105.7311"
  },
  {
    "city": "Taiyuan",
    "state": "Shanxi",
    "country": "China",
    "latlong": "37.8733,112.5425"
  },
  {
    "city": "Lucknow",
    "state": "Uttar Pradesh",
    "country": "India",
    "latlong": "26.847,80.947"
  },
  {
    "city": "Chaoyang",
    "state": "Liaoning",
    "country": "China",
    "latlong": "41.5757,120.4486"
  },
  {
    "city": "Hechi",
    "state": "Guangxi",
    "country": "China",
    "latlong": "24.6928,108.085"
  },
  {
    "city": "Leshan",
    "state": "Sichuan",
    "country": "China",
    "latlong": "29.5854,103.7575"
  },
  {
    "city": "Yulinshi",
    "state": "Shaanxi",
    "country": "China",
    "latlong": "38.2655,109.7388"
  },
  {
    "city": "Siping",
    "state": "Jilin",
    "country": "China",
    "latlong": "43.1715,124.3644"
  },
  {
    "city": "Madrid",
    "state": "Madrid",
    "country": "Spain",
    "latlong": "40.4189,-3.6919"
  },
  {
    "city": "Jinan",
    "state": "Shandong",
    "country": "China",
    "latlong": "36.6667,116.9833"
  },
  {
    "city": "Shiyan",
    "state": "Hubei",
    "country": "China",
    "latlong": "32.6351,110.7755"
  },
  {
    "city": "Changzhi",
    "state": "Shanxi",
    "country": "China",
    "latlong": "36.1953,113.097"
  },
  {
    "city": "San Diego",
    "state": "California",
    "country": "United States",
    "latlong": "32.8312,-117.1225"
  },
  {
    "city": "Faisalabad",
    "state": "Punjab",
    "country": "Pakistan",
    "latlong": "31.418,73.079"
  },
  {
    "city": "Santa Cruz",
    "state": "Santa Cruz",
    "country": "Bolivia",
    "latlong": "-17.7892,-63.1975"
  },
  {
    "city": "Bazhou",
    "state": "Sichuan",
    "country": "China",
    "latlong": "31.8576,106.7559"
  },
  {
    "city": "Zhongshan",
    "state": "Guangdong",
    "country": "China",
    "latlong": "22.5333,113.35"
  },
  {
    "city": "Zhenjiang",
    "state": "Jiangsu",
    "country": "China",
    "latlong": "32.2109,119.4551"
  },
  {
    "city": "Ürümqi",
    "state": "Xinjiang",
    "country": "China",
    "latlong": "43.825,87.6"
  },
  {
    "city": "Tongliao",
    "state": "Inner Mongolia",
    "country": "China",
    "latlong": "43.6172,122.264"
  },
  {
    "city": "Heyuan",
    "state": "Guangdong",
    "country": "China",
    "latlong": "23.7503,114.6923"
  },
  {
    "city": "Tongren",
    "state": "Guizhou",
    "country": "China",
    "latlong": "27.7233,109.1885"
  },
  {
    "city": "Qinzhou",
    "state": "Guangxi",
    "country": "China",
    "latlong": "21.95,108.6167"
  },
  {
    "city": "Jaipur",
    "state": "Rājasthān",
    "country": "India",
    "latlong": "26.9167,75.8667"
  },
  {
    "city": "Xinzhou",
    "state": "Shanxi",
    "country": "China",
    "latlong": "38.4178,112.7233"
  },
  {
    "city": "Addis Ababa",
    "state": "Ādīs Ābeba",
    "country": "Ethiopia",
    "latlong": "9.0272,38.7369"
  },
  {
    "city": "Giza",
    "state": "Al Jīzah",
    "country": "Egypt",
    "latlong": "29.987,31.2118"
  },
  {
    "city": "Meishan",
    "state": "Sichuan",
    "country": "China",
    "latlong": "30.0575,103.8381"
  },
  {
    "city": "Brasília",
    "state": "Distrito Federal",
    "country": "Brazil",
    "latlong": "-15.7744,-48.0773"
  },
  {
    "city": "Mashhad",
    "state": "Khorāsān-e Raẕavī",
    "country": "Iran",
    "latlong": "36.3069,59.6042"
  },
  {
    "city": "Jinzhou",
    "state": "Liaoning",
    "country": "China",
    "latlong": "41.1144,121.1292"
  },
  {
    "city": "Tieling",
    "state": "Liaoning",
    "country": "China",
    "latlong": "42.2841,123.8365"
  },
  {
    "city": "Shaoguan",
    "state": "Guangdong",
    "country": "China",
    "latlong": "24.8011,113.5927"
  },
  {
    "city": "Shanwei",
    "state": "Guangdong",
    "country": "China",
    "latlong": "22.7664,115.3331"
  },
  {
    "city": "Minneapolis",
    "state": "Minnesota",
    "country": "United States",
    "latlong": "44.9635,-93.2678"
  },
  {
    "city": "Kyiv",
    "state": "Kyyiv, Misto",
    "country": "Ukraine",
    "latlong": "50.45,30.5236"
  },
  {
    "city": "Sanaa",
    "state": "Amānat al ‘Āşimah",
    "country": "Yemen",
    "latlong": "15.35,44.2"
  },
  {
    "city": "Quezon City",
    "state": "Quezon",
    "country": "Philippines",
    "latlong": "14.6333,121.0333"
  },
  {
    "city": "Dingxi",
    "state": "Gansu",
    "country": "China",
    "latlong": "35.5806,104.6263"
  },
  {
    "city": "Salvador",
    "state": "Bahia",
    "country": "Brazil",
    "latlong": "-12.9708,-38.5108"
  },
  {
    "city": "Incheon",
    "state": "Incheon",
    "country": "Korea, South",
    "latlong": "37.4639,126.6486"
  },
  {
    "city": "Bursa",
    "state": "Bursa",
    "country": "Turkey",
    "latlong": "40.1833,29.0667"
  },
  {
    "city": "Ningde",
    "state": "Fujian",
    "country": "China",
    "latlong": "26.6667,119.5167"
  },
  {
    "city": "Tampa",
    "state": "Florida",
    "country": "United States",
    "latlong": "27.9942,-82.4451"
  },
  {
    "city": "Daqing",
    "state": "Heilongjiang",
    "country": "China",
    "latlong": "46.5979,125.008"
  },
  {
    "city": "Birmingham",
    "state": "Birmingham",
    "country": "United Kingdom",
    "latlong": "52.48,-1.9025"
  },
  {
    "city": "Putian",
    "state": "Fujian",
    "country": "China",
    "latlong": "25.4394,119.0103"
  },
  {
    "city": "Huzhou",
    "state": "Zhejiang",
    "country": "China",
    "latlong": "30.8695,120.0958"
  },
  {
    "city": "Wuzhou",
    "state": "Guangxi",
    "country": "China",
    "latlong": "23.4833,111.3167"
  },
  {
    "city": "Denver",
    "state": "Colorado",
    "country": "United States",
    "latlong": "39.7621,-104.8759"
  },
  {
    "city": "Rome",
    "state": "Lazio",
    "country": "Italy",
    "latlong": "41.8931,12.4828"
  },
  {
    "city": "La Paz",
    "state": "La Paz",
    "country": "Bolivia",
    "latlong": "-16.4942,-68.1475"
  },
  {
    "city": "Pyongyang",
    "state": "P’yŏngyang",
    "country": "Korea, North",
    "latlong": "39.03,125.73"
  },
  {
    "city": "Kano",
    "state": "Kano",
    "country": "Nigeria",
    "latlong": "12,8.5167"
  },
  {
    "city": "Taichung",
    "state": "Taichung",
    "country": "Taiwan",
    "latlong": "24.15,120.6667"
  },
  {
    "city": "Omdurman",
    "state": "Khartoum",
    "country": "Sudan",
    "latlong": "15.6835,32.4629"
  },
  {
    "city": "Zigong",
    "state": "Sichuan",
    "country": "China",
    "latlong": "29.3498,104.7645"
  },
  {
    "city": "Qinhuangdao",
    "state": "Hebei",
    "country": "China",
    "latlong": "39.9398,119.5881"
  },
  {
    "city": "Mudanjiang",
    "state": "Heilongjiang",
    "country": "China",
    "latlong": "44.5861,129.5997"
  },
  {
    "city": "Huludao",
    "state": "Liaoning",
    "country": "China",
    "latlong": "40.7094,120.8378"
  },
  {
    "city": "Kaohsiung",
    "state": "Kaohsiung",
    "country": "Taiwan",
    "latlong": "22.6167,120.3"
  },
  {
    "city": "Xiangtan",
    "state": "Hunan",
    "country": "China",
    "latlong": "27.8431,112.9228"
  },
  {
    "city": "Guayaquil",
    "state": "Guayas",
    "country": "Ecuador",
    "latlong": "-2.1833,-79.8833"
  },
  {
    "city": "Rizhao",
    "state": "Shandong",
    "country": "China",
    "latlong": "35.4164,119.4331"
  },
  {
    "city": "Manchester",
    "state": "Manchester",
    "country": "United Kingdom",
    "latlong": "53.4794,-2.2453"
  },
  {
    "city": "Cawnpore",
    "state": "Uttar Pradesh",
    "country": "India",
    "latlong": "26.4725,80.3311"
  },
  {
    "city": "Baotou",
    "state": "Inner Mongolia",
    "country": "China",
    "latlong": "40.6562,109.8345"
  },
  {
    "city": "Taipei",
    "state": "Taipei",
    "country": "Taiwan",
    "latlong": "25.0478,121.5319"
  },
  {
    "city": "Nanping",
    "state": "Fujian",
    "country": "China",
    "latlong": "26.6448,118.1728"
  },
  {
    "city": "Longyan",
    "state": "Fujian",
    "country": "China",
    "latlong": "25.0881,117.0244"
  },
  {
    "city": "Ibadan",
    "state": "Oyo",
    "country": "Nigeria",
    "latlong": "7.3964,3.9167"
  },
  {
    "city": "Hohhot",
    "state": "Inner Mongolia",
    "country": "China",
    "latlong": "40.8151,111.6629"
  },
  {
    "city": "Chaozhou",
    "state": "Guangdong",
    "country": "China",
    "latlong": "23.67,116.63"
  },
  {
    "city": "Antananarivo",
    "state": "Antananarivo",
    "country": "Madagascar",
    "latlong": "-18.9386,47.5214"
  },
  {
    "city": "Longba",
    "state": "Gansu",
    "country": "China",
    "latlong": "33.535,105.349"
  },
  {
    "city": "Weihai",
    "state": "Shandong",
    "country": "China",
    "latlong": "37.5,122.1"
  },
  {
    "city": "Chattogram",
    "state": "Chittagong",
    "country": "Bangladesh",
    "latlong": "22.335,91.8325"
  },
  {
    "city": "Santo Domingo",
    "state": "Ozama",
    "country": "Dominican Republic",
    "latlong": "18.4764,-69.8933"
  },
  {
    "city": "Xuanzhou",
    "state": "Anhui",
    "country": "China",
    "latlong": "30.9475,118.7518"
  },
  {
    "city": "Sanming",
    "state": "Fujian",
    "country": "China",
    "latlong": "26.2658,117.6302"
  },
  {
    "city": "Brooklyn",
    "state": "New York",
    "country": "United States",
    "latlong": "40.6501,-73.9496"
  },
  {
    "city": "Medellín",
    "state": "Antioquia",
    "country": "Colombia",
    "latlong": "6.2447,-75.5748"
  },
  {
    "city": "Brisbane",
    "state": "Queensland",
    "country": "Australia",
    "latlong": "-27.4678,153.0281"
  },
  {
    "city": "Baoshan",
    "state": "Yunnan",
    "country": "China",
    "latlong": "25.1211,99.169"
  },
  {
    "city": "Dubai",
    "state": "Dubayy",
    "country": "United Arab Emirates",
    "latlong": "25.2697,55.3094"
  },
  {
    "city": "Luohe",
    "state": "Henan",
    "country": "China",
    "latlong": "33.583,114.0109"
  },
  {
    "city": "Qinbaling",
    "state": "Gansu",
    "country": "China",
    "latlong": "35.7278,107.64"
  },
  {
    "city": "Mirzāpur",
    "state": "Uttar Pradesh",
    "country": "India",
    "latlong": "25.15,82.58"
  },
  {
    "city": "Guangyuan",
    "state": "Sichuan",
    "country": "China",
    "latlong": "32.4353,105.8398"
  },
  {
    "city": "Cali",
    "state": "Valle del Cauca",
    "country": "Colombia",
    "latlong": "3.44,-76.5197"
  },
  {
    "city": "Daegu",
    "state": "Daegu",
    "country": "Korea, South",
    "latlong": "35.8667,128.6"
  },
  {
    "city": "Fortaleza",
    "state": "Ceará",
    "country": "Brazil",
    "latlong": "-3.7275,-38.5275"
  },
  {
    "city": "Guatemala City",
    "state": "Guatemala",
    "country": "Guatemala",
    "latlong": "14.6099,-90.5252"
  },
  {
    "city": "Yaoundé",
    "state": "Centre",
    "country": "Cameroon",
    "latlong": "3.8578,11.5181"
  },
  {
    "city": "Douala",
    "state": "Littoral",
    "country": "Cameroon",
    "latlong": "4.05,9.7"
  },
  {
    "city": "Jilin",
    "state": "Jilin",
    "country": "China",
    "latlong": "43.85,126.55"
  },
  {
    "city": "Lianshan",
    "state": "Liaoning",
    "country": "China",
    "latlong": "40.7503,120.83"
  },
  {
    "city": "Lincang",
    "state": "Yunnan",
    "country": "China",
    "latlong": "23.8864,100.0871"
  },
  {
    "city": "Antalya",
    "state": "Antalya",
    "country": "Turkey",
    "latlong": "36.9081,30.6956"
  },
  {
    "city": "Tashkent",
    "state": "Toshkent",
    "country": "Uzbekistan",
    "latlong": "41.3,69.2667"
  },
  {
    "city": "Huangshi",
    "state": "Hubei",
    "country": "China",
    "latlong": "30.2018,115.0326"
  },
  {
    "city": "Bandung",
    "state": "Jawa Barat",
    "country": "Indonesia",
    "latlong": "-6.95,107.5667"
  },
  {
    "city": "Nāgpur",
    "state": "Mahārāshtra",
    "country": "India",
    "latlong": "21.1539,79.0831"
  },
  {
    "city": "Dandong",
    "state": "Liaoning",
    "country": "China",
    "latlong": "40.1167,124.3833"
  },
  {
    "city": "Huainan",
    "state": "Anhui",
    "country": "China",
    "latlong": "32.4831,117.0164"
  },
  {
    "city": "Shangzhou",
    "state": "Shaanxi",
    "country": "China",
    "latlong": "33.868,109.9244"
  },
  {
    "city": "Bekasi",
    "state": "Jawa Barat",
    "country": "Indonesia",
    "latlong": "-6.2333,107"
  },
  {
    "city": "Ghāziābād",
    "state": "Uttar Pradesh",
    "country": "India",
    "latlong": "28.6667,77.4167"
  },
  {
    "city": "Tijuana",
    "state": "Baja California",
    "country": "Mexico",
    "latlong": "32.525,-117.0333"
  },
  {
    "city": "Jiamusi",
    "state": "Heilongjiang",
    "country": "China",
    "latlong": "46.8081,130.3653"
  },
  {
    "city": "Yangjiang",
    "state": "Guangdong",
    "country": "China",
    "latlong": "21.8556,111.9627"
  },
  {
    "city": "Accra",
    "state": "Greater Accra",
    "country": "Ghana",
    "latlong": "5.6037,-0.187"
  },
  {
    "city": "Yuxi",
    "state": "Yunnan",
    "country": "China",
    "latlong": "24.3495,102.5432"
  },
  {
    "city": "Fushun",
    "state": "Liaoning",
    "country": "China",
    "latlong": "41.8708,123.8917"
  },
  {
    "city": "Anshun",
    "state": "Guizhou",
    "country": "China",
    "latlong": "26.2456,105.934"
  },
  {
    "city": "Vancouver",
    "state": "British Columbia",
    "country": "Canada",
    "latlong": "49.25,-123.1"
  },
  {
    "city": "Tangerang",
    "state": "Jawa Barat",
    "country": "Indonesia",
    "latlong": "-6.1783,106.6319"
  },
  {
    "city": "Konya",
    "state": "Konya",
    "country": "Turkey",
    "latlong": "37.8714,32.4847"
  },
  {
    "city": "Queens",
    "state": "New York",
    "country": "United States",
    "latlong": "40.7498,-73.7976"
  },
  {
    "city": "Yingkou",
    "state": "Liaoning",
    "country": "China",
    "latlong": "40.6653,122.2297"
  },
  {
    "city": "Adana",
    "state": "Adana",
    "country": "Turkey",
    "latlong": "37,35.325"
  },
  {
    "city": "Medan",
    "state": "Sumatera Utara",
    "country": "Indonesia",
    "latlong": "3.6667,98.6667"
  },
  {
    "city": "Sanmenxia",
    "state": "Henan",
    "country": "China",
    "latlong": "34.7736,111.195"
  },
  {
    "city": "Indore",
    "state": "Madhya Pradesh",
    "country": "India",
    "latlong": "22.7206,75.8472"
  },
  {
    "city": "Ma’anshan",
    "state": "Anhui",
    "country": "China",
    "latlong": "31.7135,118.3605"
  },
  {
    "city": "Pingliang",
    "state": "Gansu",
    "country": "China",
    "latlong": "35.5412,106.6819"
  },
  {
    "city": "Quzhou",
    "state": "Zhejiang",
    "country": "China",
    "latlong": "28.9545,118.8763"
  },
  {
    "city": "Baku",
    "state": "Bakı",
    "country": "Azerbaijan",
    "latlong": "40.3667,49.8352"
  },
  {
    "city": "Gaoping",
    "state": "Sichuan",
    "country": "China",
    "latlong": "30.7804,106.13"
  },
  {
    "city": "Huaibei",
    "state": "Anhui",
    "country": "China",
    "latlong": "33.9562,116.789"
  },
  {
    "city": "Xining",
    "state": "Qinghai",
    "country": "China",
    "latlong": "36.6239,101.7787"
  },
  {
    "city": "Yan’an",
    "state": "Shaanxi",
    "country": "China",
    "latlong": "36.5952,109.4863"
  },
  {
    "city": "Havana",
    "state": "La Habana",
    "country": "Cuba",
    "latlong": "23.1367,-82.3589"
  },
  {
    "city": "Phnom Penh",
    "state": "Phnom Penh",
    "country": "Cambodia",
    "latlong": "11.5696,104.921"
  },
  {
    "city": "Fukuoka",
    "state": "Fukuoka",
    "country": "Japan",
    "latlong": "33.5903,130.4019"
  },
  {
    "city": "Mogadishu",
    "state": "Banaadir",
    "country": "Somalia",
    "latlong": "2.0408,45.3425"
  },
  {
    "city": "Jincheng",
    "state": "Shanxi",
    "country": "China",
    "latlong": "35.4906,112.8483"
  },
  {
    "city": "Lishui",
    "state": "Zhejiang",
    "country": "China",
    "latlong": "28.45,119.9167"
  },
  {
    "city": "Qingyang",
    "state": "Fujian",
    "country": "China",
    "latlong": "24.8141,118.5792"
  },
  {
    "city": "Riverside",
    "state": "California",
    "country": "United States",
    "latlong": "33.9381,-117.3948"
  },
  {
    "city": "Baltimore",
    "state": "Maryland",
    "country": "United States",
    "latlong": "39.3051,-76.6144"
  },
  {
    "city": "Haiphong",
    "state": "Hải Phòng",
    "country": "Vietnam",
    "latlong": "20.8,106.6667"
  },
  {
    "city": "Las Vegas",
    "state": "Nevada",
    "country": "United States",
    "latlong": "36.2333,-115.2654"
  },
  {
    "city": "Laibin",
    "state": "Guangxi",
    "country": "China",
    "latlong": "23.7333,109.2333"
  },
  {
    "city": "Rawalpindi",
    "state": "Punjab",
    "country": "Pakistan",
    "latlong": "33.6007,73.0679"
  },
  {
    "city": "Kumasi",
    "state": "Ashanti",
    "country": "Ghana",
    "latlong": "6.6833,-1.6167"
  },
  {
    "city": "Portland",
    "state": "Oregon",
    "country": "United States",
    "latlong": "45.5372,-122.65"
  },
  {
    "city": "Vadodara",
    "state": "Gujarāt",
    "country": "India",
    "latlong": "22.3,73.2"
  },
  {
    "city": "Perth",
    "state": "Western Australia",
    "country": "Australia",
    "latlong": "-31.9522,115.8589"
  },
  {
    "city": "Puning",
    "state": "Guangdong",
    "country": "China",
    "latlong": "23.2993,116.1586"
  },
  {
    "city": "San Antonio",
    "state": "Texas",
    "country": "United States",
    "latlong": "29.4658,-98.5253"
  },
  {
    "city": "Haikou",
    "state": "Hainan",
    "country": "China",
    "latlong": "20.02,110.32"
  },
  {
    "city": "Vishākhapatnam",
    "state": "Andhra Pradesh",
    "country": "India",
    "latlong": "17.7333,83.3167"
  },
  {
    "city": "Gaziantep",
    "state": "Gaziantep",
    "country": "Turkey",
    "latlong": "37.0667,37.3833"
  },
  {
    "city": "Minsk",
    "state": "Minsk",
    "country": "Belarus",
    "latlong": "53.9022,27.5618"
  },
  {
    "city": "St. Louis",
    "state": "Missouri",
    "country": "United States",
    "latlong": "38.6358,-90.2451"
  },
  {
    "city": "Bamako",
    "state": "Bamako",
    "country": "Mali",
    "latlong": "12.6458,-7.9922"
  },
  {
    "city": "Quito",
    "state": "Pichincha",
    "country": "Ecuador",
    "latlong": "-0.2186,-78.5097"
  },
  {
    "city": "Pingxiang",
    "state": "Jiangxi",
    "country": "China",
    "latlong": "27.6333,113.85"
  },
  {
    "city": "Chongzuo",
    "state": "Guangxi",
    "country": "China",
    "latlong": "22.4167,107.3667"
  },
  {
    "city": "Şanlıurfa",
    "state": "Şanlıurfa",
    "country": "Turkey",
    "latlong": "37.1583,38.7917"
  },
  {
    "city": "Kananga",
    "state": "Kasaï Central",
    "country": "Congo (Kinshasa)",
    "latlong": "-5.897,22.4488"
  },
  {
    "city": "Peshawar",
    "state": "Khyber Pakhtunkhwa",
    "country": "Pakistan",
    "latlong": "34,71.5"
  },
  {
    "city": "Sapporo",
    "state": "Hokkaidō",
    "country": "Japan",
    "latlong": "43.0621,141.3544"
  },
  {
    "city": "Jixi",
    "state": "Heilongjiang",
    "country": "China",
    "latlong": "45.2937,130.965"
  },
  {
    "city": "Caracas",
    "state": "Distrito Capital",
    "country": "Venezuela",
    "latlong": "10.5,-66.9333"
  },
  {
    "city": "Fuxin",
    "state": "Liaoning",
    "country": "China",
    "latlong": "42.0127,121.6486"
  },
  {
    "city": "Leeds",
    "state": "Leeds",
    "country": "United Kingdom",
    "latlong": "53.7997,-1.5492"
  },
  {
    "city": "Sacramento",
    "state": "California",
    "country": "United States",
    "latlong": "38.5667,-121.4683"
  },
  {
    "city": "Blantyre",
    "state": "Blantyre",
    "country": "Malawi",
    "latlong": "-15.7861,35.0058"
  },
  {
    "city": "Tainan",
    "state": "Tainan",
    "country": "Taiwan",
    "latlong": "22.9833,120.1833"
  },
  {
    "city": "Bucharest",
    "state": "Bucureşti",
    "country": "Romania",
    "latlong": "44.4,26.0833"
  },
  {
    "city": "Wuwei",
    "state": "Gansu",
    "country": "China",
    "latlong": "37.9278,102.6329"
  },
  {
    "city": "Bhopāl",
    "state": "Madhya Pradesh",
    "country": "India",
    "latlong": "23.25,77.4167"
  },
  {
    "city": "Curitiba",
    "state": "Paraná",
    "country": "Brazil",
    "latlong": "-25.4297,-49.2719"
  },
  {
    "city": "Xiping",
    "state": "Shanxi",
    "country": "China",
    "latlong": "40.08,113.3"
  },
  {
    "city": "Asunción",
    "state": "Asunción",
    "country": "Paraguay",
    "latlong": "-25.3,-57.6333"
  },
  {
    "city": "Saidu Sharif",
    "state": "Khyber Pakhtunkhwa",
    "country": "Pakistan",
    "latlong": "34.75,72.3572"
  },
  {
    "city": "Vienna",
    "state": "Wien",
    "country": "Austria",
    "latlong": "48.2083,16.3731"
  },
  {
    "city": "Aleppo",
    "state": "Ḩalab",
    "country": "Syria",
    "latlong": "36.2,37.15"
  },
  {
    "city": "Hamburg",
    "state": "Hamburg",
    "country": "Germany",
    "latlong": "53.55,10"
  },
  {
    "city": "Meru",
    "state": "Meru",
    "country": "Kenya",
    "latlong": "0.05,37.65"
  },
  {
    "city": "Brazzaville",
    "state": "Brazzaville",
    "country": "Congo (Brazzaville)",
    "latlong": "-4.2667,15.2833"
  },
  {
    "city": "Orlando",
    "state": "Florida",
    "country": "United States",
    "latlong": "28.4772,-81.3369"
  },
  {
    "city": "Mersin",
    "state": "Mersin",
    "country": "Turkey",
    "latlong": "36.8,34.6167"
  },
  {
    "city": "Almaty",
    "state": "Almaty",
    "country": "Kazakhstan",
    "latlong": "43.25,76.9"
  },
  {
    "city": "Barranquilla",
    "state": "Atlántico",
    "country": "Colombia",
    "latlong": "10.96,-74.8"
  },
  {
    "city": "Kyōto",
    "state": "Kyōto",
    "country": "Japan",
    "latlong": "35.0111,135.7669"
  },
  {
    "city": "Manaus",
    "state": "Amazonas",
    "country": "Brazil",
    "latlong": "-3.1,-60.0167"
  },
  {
    "city": "Liaoyang",
    "state": "Liaoning",
    "country": "China",
    "latlong": "41.2643,123.1772"
  },
  {
    "city": "Baiyin",
    "state": "Gansu",
    "country": "China",
    "latlong": "36.5448,104.1766"
  },
  {
    "city": "San Jose",
    "state": "California",
    "country": "United States",
    "latlong": "37.3019,-121.8486"
  },
  {
    "city": "Warsaw",
    "state": "Mazowieckie",
    "country": "Poland",
    "latlong": "52.2167,21.0333"
  },
  {
    "city": "Shengli",
    "state": "Shandong",
    "country": "China",
    "latlong": "37.45,118.4667"
  },
  {
    "city": "Lubumbashi",
    "state": "Haut-Katanga",
    "country": "Congo (Kinshasa)",
    "latlong": "-11.6697,27.4581"
  },
  {
    "city": "Damascus",
    "state": "Dimashq",
    "country": "Syria",
    "latlong": "33.5131,36.2919"
  },
  {
    "city": "Shuyangzha",
    "state": "Jiangsu",
    "country": "China",
    "latlong": "34.1299,118.7734"
  },
  {
    "city": "Shangqiu",
    "state": "Henan",
    "country": "China",
    "latlong": "34.4504,115.65"
  },
  {
    "city": "Eşfahān",
    "state": "Eşfahān",
    "country": "Iran",
    "latlong": "32.6447,51.6675"
  },
  {
    "city": "Budapest",
    "state": "Budapest",
    "country": "Hungary",
    "latlong": "47.4983,19.0408"
  },
  {
    "city": "Heihe",
    "state": "Heilongjiang",
    "country": "China",
    "latlong": "50.2458,127.4886"
  },
  {
    "city": "Lusaka",
    "state": "Lusaka",
    "country": "Zambia",
    "latlong": "-15.4167,28.2833"
  },
  {
    "city": "Diyarbakır",
    "state": "Diyarbakır",
    "country": "Turkey",
    "latlong": "37.9108,40.2367"
  },
  {
    "city": "Chinchvad",
    "state": "Mahārāshtra",
    "country": "India",
    "latlong": "18.6278,73.8131"
  },
  {
    "city": "Shuozhou",
    "state": "Shanxi",
    "country": "China",
    "latlong": "39.3408,112.4292"
  },
  {
    "city": "Vitória",
    "state": "Espírito Santo",
    "country": "Brazil",
    "latlong": "-20.324,-40.366"
  },
  {
    "city": "Cleveland",
    "state": "Ohio",
    "country": "United States",
    "latlong": "41.4767,-81.6804"
  },
  {
    "city": "Pittsburgh",
    "state": "Pennsylvania",
    "country": "United States",
    "latlong": "40.4396,-79.9762"
  },
  {
    "city": "Mecca",
    "state": "Makkah al Mukarramah",
    "country": "Saudi Arabia",
    "latlong": "21.4225,39.8261"
  },
  {
    "city": "Patna",
    "state": "Bihār",
    "country": "India",
    "latlong": "25.61,85.1414"
  },
  {
    "city": "Mosul",
    "state": "Nīnawá",
    "country": "Iraq",
    "latlong": "36.3667,43.1167"
  },
  {
    "city": "Austin",
    "state": "Texas",
    "country": "United States",
    "latlong": "30.3004,-97.7522"
  },
  {
    "city": "Sanzhou",
    "state": "Chongqing",
    "country": "China",
    "latlong": "30.82,108.4"
  },
  {
    "city": "Conakry",
    "state": "Conakry",
    "country": "Guinea",
    "latlong": "9.5092,-13.7122"
  },
  {
    "city": "Kampala",
    "state": "Kampala",
    "country": "Uganda",
    "latlong": "0.3136,32.5811"
  },
  {
    "city": "Ecatepec",
    "state": "México",
    "country": "Mexico",
    "latlong": "19.6097,-99.06"
  },
  {
    "city": "Cincinnati",
    "state": "Ohio",
    "country": "United States",
    "latlong": "39.1413,-84.5061"
  },
  {
    "city": "Makassar",
    "state": "Sulawesi Selatan",
    "country": "Indonesia",
    "latlong": "-5.1331,119.4136"
  },
  {
    "city": "Yushan",
    "state": "Jiangsu",
    "country": "China",
    "latlong": "31.3867,120.9766"
  },
  {
    "city": "Ludhiāna",
    "state": "Punjab",
    "country": "India",
    "latlong": "30.9083,75.8486"
  },
  {
    "city": "Newcastle",
    "state": "Newcastle upon Tyne",
    "country": "United Kingdom",
    "latlong": "55.0077,-1.6578"
  },
  {
    "city": "Depok",
    "state": "Jawa Barat",
    "country": "Indonesia",
    "latlong": "-6.394,106.8225"
  },
  {
    "city": "Zhongli",
    "state": "Taoyuan",
    "country": "Taiwan",
    "latlong": "24.965,121.2168"
  },
  {
    "city": "Kansas City",
    "state": "Missouri",
    "country": "United States",
    "latlong": "39.1239,-94.5541"
  },
  {
    "city": "Rabat",
    "state": "Rabat-Salé-Kénitra",
    "country": "Morocco",
    "latlong": "34.0253,-6.8361"
  },
  {
    "city": "Ouagadougou",
    "state": "Centre",
    "country": "Burkina Faso",
    "latlong": "12.3572,-1.5353"
  },
  {
    "city": "Davao",
    "state": "Davao",
    "country": "Philippines",
    "latlong": "7.0667,125.6"
  },
  {
    "city": "Manhattan",
    "state": "New York",
    "country": "United States",
    "latlong": "40.7834,-73.9662"
  },
  {
    "city": "Semarang",
    "state": "Jawa Tengah",
    "country": "Indonesia",
    "latlong": "-6.9667,110.4167"
  },
  {
    "city": "Yinchuan",
    "state": "Ningxia",
    "country": "China",
    "latlong": "38.4795,106.2254"
  },
  {
    "city": "Multan",
    "state": "Punjab",
    "country": "Pakistan",
    "latlong": "30.1978,71.4711"
  },
  {
    "city": "Caloocan City",
    "state": "Caloocan",
    "country": "Philippines",
    "latlong": "14.65,120.9667"
  },
  {
    "city": "Harare",
    "state": "Harare",
    "country": "Zimbabwe",
    "latlong": "-17.8292,31.0522"
  },
  {
    "city": "Novosibirsk",
    "state": "Novosibirskaya Oblast’",
    "country": "Russia",
    "latlong": "55.0333,82.9167"
  },
  {
    "city": "Chengtangcun",
    "state": "Shandong",
    "country": "China",
    "latlong": "35.0833,117.15"
  },
  {
    "city": "Āgra",
    "state": "Uttar Pradesh",
    "country": "India",
    "latlong": "27.18,78.02"
  },
  {
    "city": "Karaj",
    "state": "Alborz",
    "country": "Iran",
    "latlong": "35.8327,50.9915"
  },
  {
    "city": "Indianapolis",
    "state": "Indiana",
    "country": "United States",
    "latlong": "39.7771,-86.1458"
  },
  {
    "city": "Jingdezhen",
    "state": "Jiangxi",
    "country": "China",
    "latlong": "29.2942,117.2036"
  },
  {
    "city": "Puebla",
    "state": "Puebla",
    "country": "Mexico",
    "latlong": "19.0333,-98.1833"
  },
  {
    "city": "Kalyān",
    "state": "Mahārāshtra",
    "country": "India",
    "latlong": "19.2502,73.1602"
  },
  {
    "city": "Madurai",
    "state": "Tamil Nādu",
    "country": "India",
    "latlong": "9.9197,78.1194"
  },
  {
    "city": "Gujranwala",
    "state": "Punjab",
    "country": "Pakistan",
    "latlong": "32.15,74.1833"
  },
  {
    "city": "Benxi",
    "state": "Liaoning",
    "country": "China",
    "latlong": "41.292,123.761"
  },
  {
    "city": "Jamshedpur",
    "state": "Jharkhand",
    "country": "India",
    "latlong": "22.8,86.1833"
  },
  {
    "city": "Zhuhai",
    "state": "Guangdong",
    "country": "China",
    "latlong": "22.2769,113.5678"
  },
  {
    "city": "Recife",
    "state": "Pernambuco",
    "country": "Brazil",
    "latlong": "-8.0539,-34.8808"
  },
  {
    "city": "Columbus",
    "state": "Ohio",
    "country": "United States",
    "latlong": "39.9862,-82.985"
  },
  {
    "city": "Tabrīz",
    "state": "Āz̄arbāyjān-e Sharqī",
    "country": "Iran",
    "latlong": "38.0833,46.2833"
  },
  {
    "city": "Santiago",
    "state": "Cibao Norte",
    "country": "Dominican Republic",
    "latlong": "19.5,-70.67"
  },
  {
    "city": "Maracaibo",
    "state": "Zulia",
    "country": "Venezuela",
    "latlong": "10.6333,-71.6333"
  },
  {
    "city": "Beihai",
    "state": "Guangxi",
    "country": "China",
    "latlong": "21.4667,109.1"
  },
  {
    "city": "Shuangyashan",
    "state": "Heilongjiang",
    "country": "China",
    "latlong": "46.6388,131.1545"
  },
  {
    "city": "Kōbe",
    "state": "Hyōgo",
    "country": "Japan",
    "latlong": "34.6913,135.183"
  },
  {
    "city": "Charlotte",
    "state": "North Carolina",
    "country": "United States",
    "latlong": "35.208,-80.8304"
  },
  {
    "city": "Yucheng",
    "state": "Sichuan",
    "country": "China",
    "latlong": "29.9888,103.0007"
  },
  {
    "city": "Changshu",
    "state": "Jiangsu",
    "country": "China",
    "latlong": "31.65,120.7333"
  },
  {
    "city": "Ximeicun",
    "state": "Fujian",
    "country": "China",
    "latlong": "24.9633,118.3811"
  },
  {
    "city": "Jianguang",
    "state": "Jiangxi",
    "country": "China",
    "latlong": "28.1958,115.7833"
  },
  {
    "city": "Gwangju",
    "state": "Gwangju",
    "country": "Korea, South",
    "latlong": "35.1667,126.9167"
  },
  {
    "city": "Xushan",
    "state": "Zhejiang",
    "country": "China",
    "latlong": "30.1697,121.2665"
  },
  {
    "city": "Guiping",
    "state": "Guangxi",
    "country": "China",
    "latlong": "23.4,110.0833"
  },
  {
    "city": "Nāsik",
    "state": "Mahārāshtra",
    "country": "India",
    "latlong": "20,73.7833"
  },
  {
    "city": "Porto Alegre",
    "state": "Rio Grande do Sul",
    "country": "Brazil",
    "latlong": "-30.0328,-51.23"
  },
  {
    "city": "Zhangjiajie",
    "state": "Hunan",
    "country": "China",
    "latlong": "29.1255,110.4844"
  },
  {
    "city": "Valencia",
    "state": "Carabobo",
    "country": "Venezuela",
    "latlong": "10.1667,-68"
  },
  {
    "city": "Virginia Beach",
    "state": "Virginia",
    "country": "United States",
    "latlong": "36.7335,-76.0435"
  },
  {
    "city": "Daejeon",
    "state": "Daejeon",
    "country": "Korea, South",
    "latlong": "36.351,127.385"
  },
  {
    "city": "Munich",
    "state": "Bavaria",
    "country": "Germany",
    "latlong": "48.1372,11.5755"
  },
  {
    "city": "Yekaterinburg",
    "state": "Sverdlovskaya Oblast’",
    "country": "Russia",
    "latlong": "56.8356,60.6128"
  },
  {
    "city": "Auckland",
    "state": "Auckland",
    "country": "New Zealand",
    "latlong": "-36.85,174.7833"
  },
  {
    "city": "Yunfu",
    "state": "Guangdong",
    "country": "China",
    "latlong": "22.9242,112.0353"
  },
  {
    "city": "Huangshan",
    "state": "Anhui",
    "country": "China",
    "latlong": "29.7132,118.3151"
  },
  {
    "city": "Huazhou",
    "state": "Henan",
    "country": "China",
    "latlong": "32.6832,112.079"
  },
  {
    "city": "Shīrāz",
    "state": "Fārs",
    "country": "Iran",
    "latlong": "29.61,52.5425"
  },
  {
    "city": "León de los Aldama",
    "state": "Guanajuato",
    "country": "Mexico",
    "latlong": "21.1167,-101.6833"
  },
  {
    "city": "Pizhou",
    "state": "Jiangsu",
    "country": "China",
    "latlong": "34.3422,118.0097"
  },
  {
    "city": "Palembang",
    "state": "Sumatera Selatan",
    "country": "Indonesia",
    "latlong": "-2.9833,104.7644"
  },
  {
    "city": "Kharkiv",
    "state": "Kharkivs’ka Oblast’",
    "country": "Ukraine",
    "latlong": "50,36.2292"
  },
  {
    "city": "Kawanakajima",
    "state": "Kanagawa",
    "country": "Japan",
    "latlong": "35.53,139.705"
  },
  {
    "city": "Lianjiang",
    "state": "Guangdong",
    "country": "China",
    "latlong": "21.6146,110.2794"
  },
  {
    "city": "Chizhou",
    "state": "Anhui",
    "country": "China",
    "latlong": "30.6583,117.4849"
  },
  {
    "city": "Leizhou",
    "state": "Guangdong",
    "country": "China",
    "latlong": "20.9147,110.0806"
  },
  {
    "city": "Guyuan",
    "state": "Ningxia",
    "country": "China",
    "latlong": "36.008,106.2782"
  },
  {
    "city": "Rui’an",
    "state": "Zhejiang",
    "country": "China",
    "latlong": "27.778,120.6526"
  },
  {
    "city": "Birstall",
    "state": "Leicester",
    "country": "United Kingdom",
    "latlong": "52.6736,-1.12"
  },
  {
    "city": "Muscat",
    "state": "Masqaţ",
    "country": "Oman",
    "latlong": "23.6139,58.5922"
  },
  {
    "city": "Hebi",
    "state": "Henan",
    "country": "China",
    "latlong": "35.7497,114.2887"
  },
  {
    "city": "Jingling",
    "state": "Hubei",
    "country": "China",
    "latlong": "30.6667,113.1667"
  },
  {
    "city": "Bronx",
    "state": "New York",
    "country": "United States",
    "latlong": "40.8501,-73.8662"
  },
  {
    "city": "The Hague",
    "state": "Zuid-Holland",
    "country": "Netherlands",
    "latlong": "52.08,4.27"
  },
  {
    "city": "Owerri",
    "state": "Imo",
    "country": "Nigeria",
    "latlong": "5.4833,7.0333"
  },
  {
    "city": "Sharjah",
    "state": "Ash Shāriqah",
    "country": "United Arab Emirates",
    "latlong": "25.3575,55.3919"
  },
  {
    "city": "Farīdābād",
    "state": "Haryāna",
    "country": "India",
    "latlong": "28.4333,77.3167"
  },
  {
    "city": "Ulaanbaatar",
    "state": "Ulaanbaatar",
    "country": "Mongolia",
    "latlong": "47.9203,106.9172"
  },
  {
    "city": "Goiânia",
    "state": "Goiás",
    "country": "Brazil",
    "latlong": "-16.6789,-49.2539"
  },
  {
    "city": "Belém",
    "state": "Pará",
    "country": "Brazil",
    "latlong": "-1.4558,-48.5039"
  },
  {
    "city": "Kayseri",
    "state": "Kayseri",
    "country": "Turkey",
    "latlong": "38.7333,35.4833"
  },
  {
    "city": "Yueqing",
    "state": "Zhejiang",
    "country": "China",
    "latlong": "28.1188,120.9621"
  },
  {
    "city": "Belgrade",
    "state": "Beograd",
    "country": "Serbia",
    "latlong": "44.8167,20.4667"
  },
  {
    "city": "Pingdu",
    "state": "Shandong",
    "country": "China",
    "latlong": "36.7833,119.9556"
  },
  {
    "city": "Aurangābād",
    "state": "Mahārāshtra",
    "country": "India",
    "latlong": "19.88,75.32"
  },
  {
    "city": "Yutan",
    "state": "Hunan",
    "country": "China",
    "latlong": "28.3147,112.554"
  },
  {
    "city": "Wenling",
    "state": "Zhejiang",
    "country": "China",
    "latlong": "28.3797,121.3718"
  },
  {
    "city": "Islamabad",
    "state": "Islāmābād",
    "country": "Pakistan",
    "latlong": "33.6989,73.0369"
  },
  {
    "city": "Milwaukee",
    "state": "Wisconsin",
    "country": "United States",
    "latlong": "43.0642,-87.9673"
  },
  {
    "city": "Milan",
    "state": "Lombardy",
    "country": "Italy",
    "latlong": "45.4669,9.19"
  },
  {
    "city": "Sofia",
    "state": "Sofia-Grad",
    "country": "Bulgaria",
    "latlong": "42.6975,23.3241"
  },
  {
    "city": "Adelaide",
    "state": "South Australia",
    "country": "Australia",
    "latlong": "-34.9289,138.6011"
  },
  {
    "city": "Samsun",
    "state": "Samsun",
    "country": "Turkey",
    "latlong": "41.2867,36.33"
  },
  {
    "city": "Rājkot",
    "state": "Gujarāt",
    "country": "India",
    "latlong": "22.2969,70.7984"
  },
  {
    "city": "Khulna",
    "state": "Khulna",
    "country": "Bangladesh",
    "latlong": "22.8167,89.55"
  },
  {
    "city": "Córdoba",
    "state": "Córdoba",
    "country": "Argentina",
    "latlong": "-31.4167,-64.1833"
  },
  {
    "city": "Guarulhos",
    "state": "São Paulo",
    "country": "Brazil",
    "latlong": "-23.4667,-46.5333"
  },
  {
    "city": "Juárez",
    "state": "Chihuahua",
    "country": "Mexico",
    "latlong": "31.7386,-106.487"
  },
  {
    "city": "Prague",
    "state": "Praha, Hlavní Město",
    "country": "Czechia",
    "latlong": "50.0833,14.4167"
  },
  {
    "city": "Montevideo",
    "state": "Montevideo",
    "country": "Uruguay",
    "latlong": "-34.8667,-56.1667"
  },
  {
    "city": "Mbuji-Mayi",
    "state": "Kasaï Oriental",
    "country": "Congo (Kinshasa)",
    "latlong": "-6.1209,23.5967"
  },
  {
    "city": "Fuqing",
    "state": "Fujian",
    "country": "China",
    "latlong": "25.7232,119.3735"
  },
  {
    "city": "Xintai",
    "state": "Shandong",
    "country": "China",
    "latlong": "35.91,117.78"
  },
  {
    "city": "Doha",
    "state": "Ad Dawḩah",
    "country": "Qatar",
    "latlong": "25.3,51.5333"
  },
  {
    "city": "Saitama",
    "state": "Saitama",
    "country": "Japan",
    "latlong": "35.8617,139.6453"
  },
  {
    "city": "Hiroshima",
    "state": "Hiroshima",
    "country": "Japan",
    "latlong": "34.3853,132.4553"
  },
  {
    "city": "Meerut",
    "state": "Uttar Pradesh",
    "country": "India",
    "latlong": "28.99,77.7"
  },
  {
    "city": "Yushu",
    "state": "Jilin",
    "country": "China",
    "latlong": "44.8249,126.5451"
  },
  {
    "city": "Rongcheng",
    "state": "Yunnan",
    "country": "China",
    "latlong": "26.2312,104.0966"
  },
  {
    "city": "Yangquan",
    "state": "Shanxi",
    "country": "China",
    "latlong": "37.8576,113.5762"
  },
  {
    "city": "Haicheng",
    "state": "Liaoning",
    "country": "China",
    "latlong": "40.8523,122.7474"
  },
  {
    "city": "Gaozhou",
    "state": "Guangdong",
    "country": "China",
    "latlong": "21.9392,110.8461"
  },
  {
    "city": "Yingtan",
    "state": "Jiangxi",
    "country": "China",
    "latlong": "28.2333,117"
  },
  {
    "city": "Huaiyin",
    "state": "Jiangsu",
    "country": "China",
    "latlong": "33.58,119.03"
  },
  {
    "city": "Wuzhong",
    "state": "Ningxia",
    "country": "China",
    "latlong": "37.9874,106.1919"
  },
  {
    "city": "Jabalpur",
    "state": "Madhya Pradesh",
    "country": "India",
    "latlong": "23.1667,79.9333"
  },
  {
    "city": "Thāne",
    "state": "Mahārāshtra",
    "country": "India",
    "latlong": "19.18,72.9633"
  },
  {
    "city": "Zhangye",
    "state": "Gansu",
    "country": "China",
    "latlong": "38.9355,100.4553"
  },
  {
    "city": "Rucheng",
    "state": "Jiangsu",
    "country": "China",
    "latlong": "32.3852,120.5634"
  },
  {
    "city": "Nizhniy Novgorod",
    "state": "Nizhegorodskaya Oblast’",
    "country": "Russia",
    "latlong": "56.3269,44.0075"
  },
  {
    "city": "Comayagüela",
    "state": "Francisco Morazán",
    "country": "Honduras",
    "latlong": "14.0833,-87.2167"
  },
  {
    "city": "Yangshe",
    "state": "Jiangsu",
    "country": "China",
    "latlong": "31.8775,120.5512"
  },
  {
    "city": "Shaoyang",
    "state": "Jiangsu",
    "country": "China",
    "latlong": "32.9387,119.8404"
  },
  {
    "city": "Dhanbād",
    "state": "Jharkhand",
    "country": "India",
    "latlong": "23.7928,86.435"
  },
  {
    "city": "Yichun",
    "state": "Heilongjiang",
    "country": "China",
    "latlong": "47.7235,128.8893"
  },
  {
    "city": "Laiwu",
    "state": "Shandong",
    "country": "China",
    "latlong": "36.1833,117.6667"
  },
  {
    "city": "Kazan",
    "state": "Tatarstan",
    "country": "Russia",
    "latlong": "55.7908,49.1144"
  },
  {
    "city": "Dayan",
    "state": "Yunnan",
    "country": "China",
    "latlong": "26.8808,100.2208"
  },
  {
    "city": "Suwon",
    "state": "Gyeonggi",
    "country": "Korea, South",
    "latlong": "37.2858,127.01"
  },
  {
    "city": "Jiangyin",
    "state": "Jiangsu",
    "country": "China",
    "latlong": "31.9087,120.2653"
  },
  {
    "city": "Yongcheng",
    "state": "Henan",
    "country": "China",
    "latlong": "33.9317,116.4459"
  },
  {
    "city": "Calgary",
    "state": "Alberta",
    "country": "Canada",
    "latlong": "51.05,-114.0667"
  },
  {
    "city": "Cần Thơ",
    "state": "Cần Thơ",
    "country": "Vietnam",
    "latlong": "10.0333,105.7833"
  },
  {
    "city": "Abuja",
    "state": "Federal Capital Territory",
    "country": "Nigeria",
    "latlong": "9.0556,7.4914"
  },
  {
    "city": "Yiwu",
    "state": "Zhejiang",
    "country": "China",
    "latlong": "29.3081,120.0698"
  },
  {
    "city": "Mandalay",
    "state": "Mandalay",
    "country": "Burma",
    "latlong": "21.9769,96.0869"
  },
  {
    "city": "Beidao",
    "state": "Gansu",
    "country": "China",
    "latlong": "34.6,105.92"
  },
  {
    "city": "Al Başrah",
    "state": "Al Başrah",
    "country": "Iraq",
    "latlong": "30.4889,47.81"
  },
  {
    "city": "Shuangshui",
    "state": "Guizhou",
    "country": "China",
    "latlong": "26.5944,104.8333"
  },
  {
    "city": "Sevilla",
    "state": "Andalusia",
    "country": "Spain",
    "latlong": "37.3828,-5.9731"
  },
  {
    "city": "Vila Velha",
    "state": "Amapá",
    "country": "Brazil",
    "latlong": "3.2167,-51.2167"
  },
  {
    "city": "Allahābād",
    "state": "Uttar Pradesh",
    "country": "India",
    "latlong": "25.455,81.84"
  },
  {
    "city": "Vārānasi",
    "state": "Uttar Pradesh",
    "country": "India",
    "latlong": "25.3189,83.0128"
  },
  {
    "city": "Tunis",
    "state": "Tunis",
    "country": "Tunisia",
    "latlong": "36.8008,10.18"
  },
  {
    "city": "Chelyabinsk",
    "state": "Chelyabinskaya Oblast’",
    "country": "Russia",
    "latlong": "55.15,61.4"
  },
  {
    "city": "Mombasa",
    "state": "Mombasa",
    "country": "Kenya",
    "latlong": "-4.05,39.6667"
  },
  {
    "city": "Providence",
    "state": "Rhode Island",
    "country": "United States",
    "latlong": "41.823,-71.4187"
  },
  {
    "city": "Qom",
    "state": "Qom",
    "country": "Iran",
    "latlong": "34.6461,50.8789"
  },
  {
    "city": "Maiduguri",
    "state": "Borno",
    "country": "Nigeria",
    "latlong": "11.8333,13.15"
  },
  {
    "city": "Maputo",
    "state": "Maputo",
    "country": "Mozambique",
    "latlong": "-25.9153,32.5764"
  },
  {
    "city": "Rosario",
    "state": "Santa Fe",
    "country": "Argentina",
    "latlong": "-32.9575,-60.6394"
  },
  {
    "city": "Benin City",
    "state": "Edo",
    "country": "Nigeria",
    "latlong": "6.3176,5.6145"
  },
  {
    "city": "Xinyu",
    "state": "Jiangxi",
    "country": "China",
    "latlong": "27.795,114.9242"
  },
  {
    "city": "Ahvāz",
    "state": "Khūzestān",
    "country": "Iran",
    "latlong": "31.3203,48.6692"
  },
  {
    "city": "Dublin",
    "state": "Dublin",
    "country": "Ireland",
    "latlong": "53.3425,-6.2658"
  },
  {
    "city": "Jacksonville",
    "state": "Florida",
    "country": "United States",
    "latlong": "30.3322,-81.6749"
  },
  {
    "city": "Medina",
    "state": "Al Madīnah al Munawwarah",
    "country": "Saudi Arabia",
    "latlong": "24.4667,39.6"
  },
  {
    "city": "Srīnagar",
    "state": "Jammu and Kashmīr",
    "country": "India",
    "latlong": "34.0911,74.8061"
  },
  {
    "city": "Omsk",
    "state": "Omskaya Oblast’",
    "country": "Russia",
    "latlong": "54.9667,73.3833"
  },
  {
    "city": "Huazhou",
    "state": "Guangdong",
    "country": "China",
    "latlong": "21.654,110.6294"
  },
  {
    "city": "Cilacap",
    "state": "Jawa Tengah",
    "country": "Indonesia",
    "latlong": "-7.7167,109.017"
  },
  {
    "city": "Xiantao",
    "state": "Hubei",
    "country": "China",
    "latlong": "30.3833,113.4"
  },
  {
    "city": "Bandar Lampung",
    "state": "Lampung",
    "country": "Indonesia",
    "latlong": "-5.4294,105.2625"
  },
  {
    "city": "Samara",
    "state": "Samarskaya Oblast’",
    "country": "Russia",
    "latlong": "53.1833,50.1167"
  },
  {
    "city": "Guankou",
    "state": "Hunan",
    "country": "China",
    "latlong": "28.1417,113.625"
  },
  {
    "city": "Ulsan",
    "state": "Ulsan",
    "country": "Korea, South",
    "latlong": "35.55,129.3167"
  },
  {
    "city": "Dingzhou",
    "state": "Hebei",
    "country": "China",
    "latlong": "38.5158,114.9845"
  },
  {
    "city": "Campinas",
    "state": "São Paulo",
    "country": "Brazil",
    "latlong": "-22.9009,-47.0573"
  },
  {
    "city": "Lianyuan",
    "state": "Hunan",
    "country": "China",
    "latlong": "27.6961,111.6659"
  },
  {
    "city": "Rongcheng",
    "state": "Hubei",
    "country": "China",
    "latlong": "29.8239,112.9019"
  },
  {
    "city": "Kaiyuan",
    "state": "Henan",
    "country": "China",
    "latlong": "36.0656,113.8153"
  },
  {
    "city": "Nay Pyi Taw",
    "state": "Nay Pyi Taw",
    "country": "Burma",
    "latlong": "19.8028,96.1583"
  },
  {
    "city": "Dakar",
    "state": "Dakar",
    "country": "Senegal",
    "latlong": "14.7319,-17.4572"
  },
  {
    "city": "Zhuji",
    "state": "Zhejiang",
    "country": "China",
    "latlong": "29.7169,120.2314"
  },
  {
    "city": "Zapopan",
    "state": "Jalisco",
    "country": "Mexico",
    "latlong": "20.7167,-103.4"
  },
  {
    "city": "Leiyang",
    "state": "Hunan",
    "country": "China",
    "latlong": "26.4179,112.8457"
  },
  {
    "city": "Dadukou",
    "state": "Sichuan",
    "country": "China",
    "latlong": "26.5849,101.7149"
  },
  {
    "city": "Quetta",
    "state": "Balochistān",
    "country": "Pakistan",
    "latlong": "30.192,67.007"
  },
  {
    "city": "Amritsar",
    "state": "Punjab",
    "country": "India",
    "latlong": "31.6167,74.85"
  },
  {
    "city": "Callao",
    "state": "Callao",
    "country": "Peru",
    "latlong": "-12.0611,-77.1333"
  },
  {
    "city": "Alīgarh",
    "state": "Uttar Pradesh",
    "country": "India",
    "latlong": "27.88,78.08"
  },
  {
    "city": "Yingchuan",
    "state": "Henan",
    "country": "China",
    "latlong": "34.1511,113.4733"
  },
  {
    "city": "Tegucigalpa",
    "state": "Francisco Morazán",
    "country": "Honduras",
    "latlong": "14.0942,-87.2067"
  },
  {
    "city": "Ciudad Nezahualcóyotl",
    "state": "México",
    "country": "Mexico",
    "latlong": "19.41,-99.03"
  },
  {
    "city": "Tripoli",
    "state": "Ţarābulus",
    "country": "Libya",
    "latlong": "32.8752,13.1875"
  },
  {
    "city": "Rostov",
    "state": "Rostovskaya Oblast’",
    "country": "Russia",
    "latlong": "47.2333,39.7167"
  },
  {
    "city": "Nezahualcóyotl",
    "state": "México",
    "country": "Mexico",
    "latlong": "19.4,-98.9889"
  },
  {
    "city": "Bhiwandi",
    "state": "Mahārāshtra",
    "country": "India",
    "latlong": "19.3,73.0667"
  },
  {
    "city": "Zhoushan",
    "state": "Zhejiang",
    "country": "China",
    "latlong": "30.0162,122.0988"
  },
  {
    "city": "Tbilisi",
    "state": "Tbilisi",
    "country": "Georgia",
    "latlong": "41.7225,44.7925"
  },
  {
    "city": "Ufa",
    "state": "Bashkortostan",
    "country": "Russia",
    "latlong": "54.7333,55.9667"
  },
  {
    "city": "Fès",
    "state": "Fès-Meknès",
    "country": "Morocco",
    "latlong": "34.0433,-5.0033"
  },
  {
    "city": "Biên Hòa",
    "state": "Đồng Nai",
    "country": "Vietnam",
    "latlong": "10.9575,106.8426"
  },
  {
    "city": "Mexicali",
    "state": "Baja California",
    "country": "Mexico",
    "latlong": "32.6633,-115.4678"
  },
  {
    "city": "Gwalior",
    "state": "Madhya Pradesh",
    "country": "India",
    "latlong": "26.215,78.1931"
  },
  {
    "city": "Ankang",
    "state": "Shaanxi",
    "country": "China",
    "latlong": "32.6877,109.0235"
  },
  {
    "city": "Ikare",
    "state": "Ondo",
    "country": "Nigeria",
    "latlong": "7.5304,5.76"
  },
  {
    "city": "Hegang",
    "state": "Heilongjiang",
    "country": "China",
    "latlong": "47.3139,130.2775"
  },
  {
    "city": "Salt Lake City",
    "state": "Utah",
    "country": "United States",
    "latlong": "40.7777,-111.9306"
  },
  {
    "city": "Bhilai",
    "state": "Chhattīsgarh",
    "country": "India",
    "latlong": "21.2167,81.4333"
  },
  {
    "city": "Yuyao",
    "state": "Zhejiang",
    "country": "China",
    "latlong": "30.0372,121.1546"
  },
  {
    "city": "N’Djamena",
    "state": "Ville de N’Djaména",
    "country": "Chad",
    "latlong": "12.11,15.05"
  },
  {
    "city": "Hanchuan",
    "state": "Hubei",
    "country": "China",
    "latlong": "30.652,113.8274"
  },
  {
    "city": "Gongzhuling",
    "state": "Jilin",
    "country": "China",
    "latlong": "43.5036,124.8088"
  },
  {
    "city": "Copenhagen",
    "state": "Hovedstaden",
    "country": "Denmark",
    "latlong": "55.6786,12.5635"
  },
  {
    "city": "Irbid",
    "state": "Irbid",
    "country": "Jordan",
    "latlong": "32.5556,35.85"
  },
  {
    "city": "Hāora",
    "state": "West Bengal",
    "country": "India",
    "latlong": "22.59,88.31"
  },
  {
    "city": "Cologne",
    "state": "North Rhine-Westphalia",
    "country": "Germany",
    "latlong": "50.9422,6.9578"
  },
  {
    "city": "Krasnoyarsk",
    "state": "Krasnoyarskiy Kray",
    "country": "Russia",
    "latlong": "56.0167,92.8667"
  },
  {
    "city": "Yicheng",
    "state": "Jiangsu",
    "country": "China",
    "latlong": "31.3697,119.8239"
  },
  {
    "city": "Mizhou",
    "state": "Shandong",
    "country": "China",
    "latlong": "36,119.4167"
  },
  {
    "city": "Nashville",
    "state": "Tennessee",
    "country": "United States",
    "latlong": "36.1715,-86.7843"
  },
  {
    "city": "Yerevan",
    "state": "Yerevan",
    "country": "Armenia",
    "latlong": "40.1814,44.5144"
  },
  {
    "city": "Rānchi",
    "state": "Jharkhand",
    "country": "India",
    "latlong": "23.3556,85.3347"
  },
  {
    "city": "Nur-Sultan",
    "state": "Astana",
    "country": "Kazakhstan",
    "latlong": "51.1333,71.4333"
  },
  {
    "city": "Nouakchott",
    "state": "",
    "country": "Mauritania",
    "latlong": "18.0783,-15.9744"
  },
  {
    "city": "Vereeniging",
    "state": "Gauteng",
    "country": "South Africa",
    "latlong": "-26.6736,27.9319"
  },
  {
    "city": "Richmond",
    "state": "Virginia",
    "country": "United States",
    "latlong": "37.5295,-77.4756"
  },
  {
    "city": "São Luís",
    "state": "Maranhão",
    "country": "Brazil",
    "latlong": "-2.53,-44.3028"
  },
  {
    "city": "San Pedro Sula",
    "state": "Cortés",
    "country": "Honduras",
    "latlong": "15.5,-88.0333"
  },
  {
    "city": "Taixing",
    "state": "Jiangsu",
    "country": "China",
    "latlong": "32.1724,120.0142"
  },
  {
    "city": "Memphis",
    "state": "Tennessee",
    "country": "United States",
    "latlong": "35.1046,-89.9773"
  },
  {
    "city": "Goyang",
    "state": "Gyeonggi",
    "country": "Korea, South",
    "latlong": "37.6564,126.835"
  },
  {
    "city": "Bezwāda",
    "state": "Andhra Pradesh",
    "country": "India",
    "latlong": "16.5167,80.6167"
  },
  {
    "city": "Edmonton",
    "state": "Alberta",
    "country": "Canada",
    "latlong": "53.5344,-113.4903"
  },
  {
    "city": "Xishan",
    "state": "Hunan",
    "country": "China",
    "latlong": "27.6609,113.4946"
  },
  {
    "city": "Barquisimeto",
    "state": "Lara",
    "country": "Venezuela",
    "latlong": "10.0678,-69.3467"
  },
  {
    "city": "Sendai",
    "state": "Miyagi",
    "country": "Japan",
    "latlong": "38.2683,140.8694"
  },
  {
    "city": "Voronezh",
    "state": "Voronezhskaya Oblast’",
    "country": "Russia",
    "latlong": "51.6717,39.2106"
  },
  {
    "city": "Perm",
    "state": "Permskiy Kray",
    "country": "Russia",
    "latlong": "58.0139,56.2489"
  },
  {
    "city": "Changwon",
    "state": "Gyeongnam",
    "country": "Korea, South",
    "latlong": "35.2281,128.6811"
  },
  {
    "city": "Zhongwei",
    "state": "Ningxia",
    "country": "China",
    "latlong": "37.5139,105.1884"
  },
  {
    "city": "Shouguang",
    "state": "Shandong",
    "country": "China",
    "latlong": "36.8833,118.7333"
  },
  {
    "city": "Bogor",
    "state": "Jawa Barat",
    "country": "Indonesia",
    "latlong": "-6.6,106.8"
  },
  {
    "city": "Raleigh",
    "state": "North Carolina",
    "country": "United States",
    "latlong": "35.8325,-78.6435"
  },
  {
    "city": "Cartagena",
    "state": "Bolívar",
    "country": "Colombia",
    "latlong": "10.4236,-75.5253"
  },
  {
    "city": "Chandīgarh",
    "state": "Chandīgarh",
    "country": "India",
    "latlong": "30.7353,76.7911"
  },
  {
    "city": "Bishkek",
    "state": "Bishkek",
    "country": "Kyrgyzstan",
    "latlong": "42.8667,74.5667"
  },
  {
    "city": "Amsterdam",
    "state": "Noord-Holland",
    "country": "Netherlands",
    "latlong": "52.35,4.9166"
  },
  {
    "city": "Matola",
    "state": "Maputo",
    "country": "Mozambique",
    "latlong": "-25.9667,32.4667"
  },
  {
    "city": "Ogbomoso",
    "state": "Oyo",
    "country": "Nigeria",
    "latlong": "8.1333,4.25"
  },
  {
    "city": "Ashgabat",
    "state": "Ahal",
    "country": "Turkmenistan",
    "latlong": "37.95,58.3833"
  },
  {
    "city": "E’zhou",
    "state": "Hubei",
    "country": "China",
    "latlong": "30.3972,114.8842"
  },
  {
    "city": "Maceió",
    "state": "Alagoas",
    "country": "Brazil",
    "latlong": "-9.6658,-35.735"
  },
  {
    "city": "Niamey",
    "state": "Niamey",
    "country": "Niger",
    "latlong": "13.5086,2.1111"
  },
  {
    "city": "Managua",
    "state": "Managua",
    "country": "Nicaragua",
    "latlong": "12.15,-86.2667"
  },
  {
    "city": "Patam",
    "state": "Kepulauan Riau",
    "country": "Indonesia",
    "latlong": "1.0678,104.0167"
  },
  {
    "city": "Tekirdağ",
    "state": "Tekirdağ",
    "country": "Turkey",
    "latlong": "40.9833,27.5167"
  },
  {
    "city": "Linhai",
    "state": "Zhejiang",
    "country": "China",
    "latlong": "28.8523,121.1409"
  },
  {
    "city": "Shubrā al Khaymah",
    "state": "Al Qalyūbīyah",
    "country": "Egypt",
    "latlong": "30.1286,31.2422"
  },
  {
    "city": "Monrovia",
    "state": "Montserrado",
    "country": "Liberia",
    "latlong": "6.3106,-10.8047"
  },
  {
    "city": "Wafangdian",
    "state": "Liaoning",
    "country": "China",
    "latlong": "39.6271,121.9972"
  },
  {
    "city": "Zhongxiang",
    "state": "Hubei",
    "country": "China",
    "latlong": "31.169,112.5853"
  },
  {
    "city": "Shymkent",
    "state": "Ongtüstik Qazaqstan",
    "country": "Kazakhstan",
    "latlong": "42.3,69.6"
  },
  {
    "city": "New Orleans",
    "state": "Louisiana",
    "country": "United States",
    "latlong": "30.0687,-89.9288"
  },
  {
    "city": "Volgograd",
    "state": "Volgogradskaya Oblast’",
    "country": "Russia",
    "latlong": "48.7,44.4833"
  },
  {
    "city": "Port-au-Prince",
    "state": "Ouest",
    "country": "Haiti",
    "latlong": "18.5425,-72.3386"
  },
  {
    "city": "Mysore",
    "state": "Karnātaka",
    "country": "India",
    "latlong": "12.3086,76.6531"
  },
  {
    "city": "Odesa",
    "state": "Odes’ka Oblast’",
    "country": "Ukraine",
    "latlong": "46.4775,30.7326"
  },
  {
    "city": "Kathmandu",
    "state": "Bāgmatī",
    "country": "Nepal",
    "latlong": "27.7167,85.3667"
  },
  {
    "city": "Raipur",
    "state": "Chhattīsgarh",
    "country": "India",
    "latlong": "21.2379,81.6337"
  },
  {
    "city": "Nice",
    "state": "Provence-Alpes-Côte d’Azur",
    "country": "France",
    "latlong": "43.7034,7.2663"
  },
  {
    "city": "Arequipa",
    "state": "Arequipa",
    "country": "Peru",
    "latlong": "-16.3988,-71.5369"
  },
  {
    "city": "Port Harcourt",
    "state": "Rivers",
    "country": "Nigeria",
    "latlong": "4.75,7"
  },
  {
    "city": "Rotterdam",
    "state": "Zuid-Holland",
    "country": "Netherlands",
    "latlong": "51.92,4.48"
  },
  {
    "city": "Louisville",
    "state": "Kentucky",
    "country": "United States",
    "latlong": "38.1663,-85.6485"
  },
  {
    "city": "Zaoyang",
    "state": "Hubei",
    "country": "China",
    "latlong": "32.1287,112.7581"
  },
  {
    "city": "Shuizhai",
    "state": "Henan",
    "country": "China",
    "latlong": "33.4433,114.8994"
  },
  {
    "city": "Kota",
    "state": "Rājasthān",
    "country": "India",
    "latlong": "25.18,75.83"
  },
  {
    "city": "Abu Dhabi",
    "state": "Abū Z̧aby",
    "country": "United Arab Emirates",
    "latlong": "24.4781,54.3686"
  },
  {
    "city": "Stockholm",
    "state": "Stockholm",
    "country": "Sweden",
    "latlong": "59.3294,18.0686"
  },
  {
    "city": "Ottawa",
    "state": "Ontario",
    "country": "Canada",
    "latlong": "45.4247,-75.695"
  },
  {
    "city": "Asmara",
    "state": "Ma’ākel",
    "country": "Eritrea",
    "latlong": "15.3333,38.9167"
  },
  {
    "city": "Freetown",
    "state": "Western Area",
    "country": "Sierra Leone",
    "latlong": "8.4833,-13.2331"
  },
  {
    "city": "Jerusalem",
    "state": "Southern",
    "country": "Israel",
    "latlong": "31.7833,35.2167"
  },
  {
    "city": "Panama City",
    "state": "Panamá",
    "country": "Panama",
    "latlong": "9,-79.5"
  },
  {
    "city": "Lomé",
    "state": "Maritime",
    "country": "Togo",
    "latlong": "6.1319,1.2228"
  },
  {
    "city": "Libreville",
    "state": "Estuaire",
    "country": "Gabon",
    "latlong": "0.3901,9.4544"
  },
  {
    "city": "Zagreb",
    "state": "Zagreb, Grad",
    "country": "Croatia",
    "latlong": "45.8,15.95"
  },
  {
    "city": "Dushanbe",
    "state": "Dushanbe",
    "country": "Tajikistan",
    "latlong": "38.5731,68.7864"
  },
  {
    "city": "Lilongwe",
    "state": "Lilongwe",
    "country": "Malawi",
    "latlong": "-13.9833,33.7833"
  },
  {
    "city": "Cotonou",
    "state": "Littoral",
    "country": "Benin",
    "latlong": "6.4,2.52"
  },
  {
    "city": "Vientiane",
    "state": "Viangchan",
    "country": "Laos",
    "latlong": "17.9667,102.6"
  },
  {
    "city": "Colombo",
    "state": "Western",
    "country": "Sri Lanka",
    "latlong": "6.9167,79.8333"
  },
  {
    "city": "Kigali",
    "state": "Kigali",
    "country": "Rwanda",
    "latlong": "-1.9536,30.0606"
  },
  {
    "city": "Pretoria",
    "state": "Gauteng",
    "country": "South Africa",
    "latlong": "-25.7464,28.1881"
  },
  {
    "city": "Bangui",
    "state": "Bangui",
    "country": "Central African Republic",
    "latlong": "4.3732,18.5628"
  },
  {
    "city": "Winnipeg",
    "state": "Manitoba",
    "country": "Canada",
    "latlong": "49.8844,-97.1464"
  },
  {
    "city": "Quebec City",
    "state": "Quebec",
    "country": "Canada",
    "latlong": "46.8139,-71.2081"
  },
  {
    "city": "Riga",
    "state": "Rīga",
    "country": "Latvia",
    "latlong": "56.9475,24.1069"
  },
  {
    "city": "Oslo",
    "state": "Oslo",
    "country": "Norway",
    "latlong": "59.9111,10.7528"
  },
  {
    "city": "Chisinau",
    "state": "Chişinău",
    "country": "Moldova",
    "latlong": "47.0056,28.8575"
  },
  {
    "city": "Athens",
    "state": "Attikí",
    "country": "Greece",
    "latlong": "37.9794,23.7161"
  },
  {
    "city": "Bujumbura",
    "state": "Bujumbura Mairie",
    "country": "Burundi",
    "latlong": "-3.3825,29.3611"
  },
  {
    "city": "Helsinki",
    "state": "Uusimaa",
    "country": "Finland",
    "latlong": "60.1756,24.9342"
  },
  {
    "city": "Skopje",
    "state": "Skopje",
    "country": "Macedonia",
    "latlong": "41.9833,21.4333"
  },
  {
    "city": "Kuwait City",
    "state": "Al ‘Āşimah",
    "country": "Kuwait",
    "latlong": "29.375,47.98"
  },
  {
    "city": "Kingston",
    "state": "Kingston",
    "country": "Jamaica",
    "latlong": "17.9714,-76.7931"
  },
  {
    "city": "Vilnius",
    "state": "Vilniaus Miestas",
    "country": "Lithuania",
    "latlong": "54.6833,25.2833"
  },
  {
    "city": "San Salvador",
    "state": "San Salvador",
    "country": "El Salvador",
    "latlong": "13.6989,-89.1914"
  },
  {
    "city": "Djibouti",
    "state": "Djibouti",
    "country": "Djibouti",
    "latlong": "11.595,43.1481"
  },
  {
    "city": "Lisbon",
    "state": "Lisboa",
    "country": "Portugal",
    "latlong": "38.7452,-9.1604"
  },
  {
    "city": "Kitchener",
    "state": "Ontario",
    "country": "Canada",
    "latlong": "43.4186,-80.4728"
  },
  {
    "city": "Tallinn",
    "state": "Harjumaa",
    "country": "Estonia",
    "latlong": "59.4372,24.745"
  },
  {
    "city": "Cape Town",
    "state": "Western Cape",
    "country": "South Africa",
    "latlong": "-33.925,18.425"
  },
  {
    "city": "Bratislava",
    "state": "Bratislavský",
    "country": "Slovakia",
    "latlong": "48.1447,17.1128"
  },
  {
    "city": "Tirana",
    "state": "Tiranë",
    "country": "Albania",
    "latlong": "41.33,19.82"
  },
  {
    "city": "Canberra",
    "state": "Australian Capital Territory",
    "country": "Australia",
    "latlong": "-35.2931,149.1269"
  },
  {
    "city": "Wellington",
    "state": "Wellington",
    "country": "New Zealand",
    "latlong": "-41.2889,174.7772"
  },
  {
    "city": "Beirut",
    "state": "Beyrouth",
    "country": "Lebanon",
    "latlong": "33.8869,35.5131"
  },
  {
    "city": "Dodoma",
    "state": "Dodoma",
    "country": "Tanzania",
    "latlong": "-6.25,35.75"
  },
  {
    "city": "Halifax",
    "state": "Nova Scotia",
    "country": "Canada",
    "latlong": "44.6475,-63.5906"
  },
  {
    "city": "Bissau",
    "state": "Bissau",
    "country": "Guinea-Bissau",
    "latlong": "11.8592,-15.5956"
  },
  {
    "city": "Juba",
    "state": "Central Equatoria",
    "country": "South Sudan",
    "latlong": "4.85,31.6"
  },
  {
    "city": "Port Moresby",
    "state": "National Capital",
    "country": "Papua New Guinea",
    "latlong": "-9.4789,147.1494"
  },
  {
    "city": "Yamoussoukro",
    "state": "Yamoussoukro",
    "country": "Côte D’Ivoire",
    "latlong": "6.8161,-5.2742"
  },
  {
    "city": "Victoria",
    "state": "British Columbia",
    "country": "Canada",
    "latlong": "48.4283,-123.3647"
  },
  {
    "city": "Maseru",
    "state": "Maseru",
    "country": "Lesotho",
    "latlong": "-29.31,27.48"
  },
  {
    "city": "Nicosia",
    "state": "Lefkosía",
    "country": "Cyprus",
    "latlong": "35.1725,33.365"
  },
  {
    "city": "Windhoek",
    "state": "Khomas",
    "country": "Namibia",
    "latlong": "-22.57,17.0836"
  },
  {
    "city": "Porto-Novo",
    "state": "Ouémé",
    "country": "Benin",
    "latlong": "6.4833,2.6167"
  },
  {
    "city": "Sucre",
    "state": "Chuquisaca",
    "country": "Bolivia",
    "latlong": "-19.0431,-65.2592"
  },
  {
    "city": "San José",
    "state": "San José",
    "country": "Costa Rica",
    "latlong": "9.9333,-84.0833"
  },
  {
    "city": "Ljubljana",
    "state": "Ljubljana",
    "country": "Slovenia",
    "latlong": "46.05,14.5167"
  },
  {
    "city": "Sarajevo",
    "state": "Bosnia and Herzegovina, Federation of",
    "country": "Bosnia And Herzegovina",
    "latlong": "43.8667,18.4167"
  },
  {
    "city": "Nassau",
    "state": "",
    "country": "Bahamas, The",
    "latlong": "25.0667,-77.3333"
  },
  {
    "city": "Bloemfontein",
    "state": "Free State",
    "country": "South Africa",
    "latlong": "-29.1,26.2167"
  },
  {
    "city": "Gaborone",
    "state": "Gaborone",
    "country": "Botswana",
    "latlong": "-24.6569,25.9086"
  },
  {
    "city": "Paramaribo",
    "state": "Paramaribo",
    "country": "Suriname",
    "latlong": "5.8667,-55.1667"
  },
  {
    "city": "Dili",
    "state": "Díli",
    "country": "Timor-Leste",
    "latlong": "-8.5586,125.5736"
  },
  {
    "city": "Pristina",
    "state": "Prishtinë",
    "country": "Kosovo",
    "latlong": "42.6667,21.1667"
  },
  {
    "city": "Georgetown",
    "state": "Demerara-Mahaica",
    "country": "Guyana",
    "latlong": "6.7833,-58.1667"
  },
  {
    "city": "Malabo",
    "state": "Bioko Norte",
    "country": "Equatorial Guinea",
    "latlong": "3.7521,8.7737"
  },
  {
    "city": "Brussels",
    "state": "Brussels-Capital Region",
    "country": "Belgium",
    "latlong": "50.8467,4.3517"
  },
  {
    "city": "Male",
    "state": "Maale",
    "country": "Maldives",
    "latlong": "4.175,73.5083"
  },
  {
    "city": "Podgorica",
    "state": "Podgorica",
    "country": "Montenegro",
    "latlong": "42.4397,19.2661"
  },
  {
    "city": "Manama",
    "state": "Al ‘Āşimah",
    "country": "Bahrain",
    "latlong": "26.2167,50.5831"
  },
  {
    "city": "Port Louis",
    "state": "Port Louis",
    "country": "Mauritius",
    "latlong": "-20.1667,57.5"
  },
  {
    "city": "New Delhi",
    "state": "Delhi",
    "country": "India",
    "latlong": "28.7,77.2"
  },
  {
    "city": "Bern",
    "state": "Bern",
    "country": "Switzerland",
    "latlong": "46.948,7.4474"
  },
  {
    "city": "Reykjavík",
    "state": "",
    "country": "Iceland",
    "latlong": "64.1475,-21.935"
  },
  {
    "city": "Praia",
    "state": "Praia",
    "country": "Cabo Verde",
    "latlong": "14.9177,-23.5092"
  },
  {
    "city": "Luxembourg",
    "state": "Luxembourg",
    "country": "Luxembourg",
    "latlong": "49.6106,6.1328"
  },
  {
    "city": "Sri Jayewardenepura Kotte",
    "state": "Western",
    "country": "Sri Lanka",
    "latlong": "6.9,79.9164"
  },
  {
    "city": "Bridgetown",
    "state": "Saint Michael",
    "country": "Barbados",
    "latlong": "13.0975,-59.6167"
  },
  {
    "city": "Moroni",
    "state": "Grande Comore",
    "country": "Comoros",
    "latlong": "-11.7036,43.2536"
  },
  {
    "city": "Thimphu",
    "state": "Thimphu",
    "country": "Bhutan",
    "latlong": "27.4833,89.6333"
  },
  {
    "city": "Mbabane",
    "state": "Hhohho",
    "country": "Swaziland",
    "latlong": "-26.3167,31.1333"
  },
  {
    "city": "Honiara",
    "state": "Honiara",
    "country": "Solomon Islands",
    "latlong": "-9.4333,159.95"
  },
  {
    "city": "Suva",
    "state": "Rewa",
    "country": "Fiji",
    "latlong": "-18.1333,178.4333"
  },
  {
    "city": "Castries",
    "state": "Castries",
    "country": "Saint Lucia",
    "latlong": "14.0167,-60.9833"
  },
  {
    "city": "São Tomé",
    "state": "São Tomé",
    "country": "Sao Tome And Principe",
    "latlong": "0.3333,6.7333"
  },
  {
    "city": "Port-Vila",
    "state": "Shefa",
    "country": "Vanuatu",
    "latlong": "-17.75,168.3"
  },
  {
    "city": "Bandar Seri Begawan",
    "state": "Brunei and Muara",
    "country": "Brunei",
    "latlong": "4.9167,114.9167"
  },
  {
    "city": "Monaco",
    "state": "",
    "country": "Monaco",
    "latlong": "43.7396,7.4069"
  },
  {
    "city": "Gitega",
    "state": "Gitega",
    "country": "Burundi",
    "latlong": "-3.4264,29.9306"
  },
  {
    "city": "Port of Spain",
    "state": "Port of Spain",
    "country": "Trinidad And Tobago",
    "latlong": "10.6667,-61.5167"
  },
  {
    "city": "Apia",
    "state": "Tuamasaga",
    "country": "Samoa",
    "latlong": "-13.8333,-171.8333"
  },
  {
    "city": "Vaduz",
    "state": "Vaduz",
    "country": "Liechtenstein",
    "latlong": "47.1415,9.5215"
  },
  {
    "city": "Banjul",
    "state": "Banjul",
    "country": "Gambia, The",
    "latlong": "13.4531,-16.5775"
  },
  {
    "city": "Tarawa",
    "state": "",
    "country": "Kiribati",
    "latlong": "1.3382,173.0176"
  },
  {
    "city": "Victoria",
    "state": "English River",
    "country": "Seychelles",
    "latlong": "-4.6236,55.4544"
  },
  {
    "city": "Majuro",
    "state": "Majuro",
    "country": "Marshall Islands",
    "latlong": "7.1167,171.3667"
  },
  {
    "city": "Kingstown",
    "state": "Saint George",
    "country": "Saint Vincent And The Grenadines",
    "latlong": "13.1667,-61.2333"
  },
  {
    "city": "Nuku‘alofa",
    "state": "Tongatapu",
    "country": "Tonga",
    "latlong": "-21.1347,-175.2083"
  },
  {
    "city": "Saint John’s",
    "state": "Saint John",
    "country": "Antigua And Barbuda",
    "latlong": "17.1211,-61.8447"
  },
  {
    "city": "Andorra la Vella",
    "state": "Andorra la Vella",
    "country": "Andorra",
    "latlong": "42.5,1.5"
  },
  {
    "city": "Belmopan",
    "state": "Cayo",
    "country": "Belize",
    "latlong": "17.25,-88.7675"
  },
  {
    "city": "Roseau",
    "state": "Saint George",
    "country": "Dominica",
    "latlong": "15.3,-61.3833"
  },
  {
    "city": "Basseterre",
    "state": "Saint George Basseterre",
    "country": "Saint Kitts And Nevis",
    "latlong": "17.2983,-62.7342"
  },
  {
    "city": "Pago Pago",
    "state": "",
    "country": "American Samoa",
    "latlong": "-14.274,-170.7046"
  },
  {
    "city": "Valletta",
    "state": "Valletta",
    "country": "Malta",
    "latlong": "35.8978,14.5125"
  },
  {
    "city": "Palikir",
    "state": "Pohnpei",
    "country": "Micronesia, Federated States Of",
    "latlong": "6.9178,158.185"
  },
  {
    "city": "Funafuti",
    "state": "Funafuti",
    "country": "Tuvalu",
    "latlong": "-8.5167,179.2167"
  },
  {
    "city": "Lobamba",
    "state": "Hhohho",
    "country": "Swaziland",
    "latlong": "-26.4167,31.1667"
  },
  {
    "city": "Saint George’s",
    "state": "Saint George",
    "country": "Grenada",
    "latlong": "12.0444,-61.7417"
  },
  {
    "city": "San Marino",
    "state": "San Marino Città",
    "country": "San Marino",
    "latlong": "43.932,12.4484"
  },
  {
    "city": "Al Quds",
    "state": "",
    "country": "West Bank",
    "latlong": "31.7764,35.2269"
  },
  {
    "city": "Capitol Hill",
    "state": "",
    "country": "Northern Mariana Islands",
    "latlong": "15.2137,145.7546"
  },
  {
    "city": "Hagåtña",
    "state": "",
    "country": "Guam",
    "latlong": "13.4745,144.7504"
  },
  {
    "city": "Ngerulmud",
    "state": "Melekeok",
    "country": "Palau",
    "latlong": "7.5006,134.6242"
  },
  {
    "city": "Bareilly",
    "state": "Uttar Pradesh",
    "country": "India",
    "latlong": "28.364,79.415"
  },
  {
    "city": "Quảng Hà",
    "state": "Quảng Nam",
    "country": "Vietnam",
    "latlong": "16.06,108.25"
  },
  {
    "city": "Kitaku",
    "state": "Fukuoka",
    "country": "Japan",
    "latlong": "33.8704,130.82"
  },
  {
    "city": "Jodhpur",
    "state": "Rājasthān",
    "country": "India",
    "latlong": "26.2918,73.0168"
  },
  {
    "city": "Xingcheng",
    "state": "Guangdong",
    "country": "China",
    "latlong": "24.1681,115.6669"
  },
  {
    "city": "Dongtai",
    "state": "Jiangsu",
    "country": "China",
    "latlong": "32.8534,120.3037"
  },
  {
    "city": "Joinvile",
    "state": "Santa Catarina",
    "country": "Brazil",
    "latlong": "-26.32,-48.8399"
  },
  {
    "city": "Yingcheng",
    "state": "Guangdong",
    "country": "China",
    "latlong": "24.1876,113.4042"
  },
  {
    "city": "Dnipro",
    "state": "Dnipropetrovs’ka Oblast’",
    "country": "Ukraine",
    "latlong": "48.45,34.9833"
  },
  {
    "city": "Glasgow",
    "state": "Glasgow City",
    "country": "United Kingdom",
    "latlong": "55.8609,-4.2514"
  },
  {
    "city": "Chiba",
    "state": "Chiba",
    "country": "Japan",
    "latlong": "35.6,140.1"
  },
  {
    "city": "Danyang",
    "state": "Jiangsu",
    "country": "China",
    "latlong": "31.9948,119.575"
  },
  {
    "city": "Natal",
    "state": "Amazonas",
    "country": "Brazil",
    "latlong": "-6.9838,-60.2699"
  },
  {
    "city": "Naples",
    "state": "Campania",
    "country": "Italy",
    "latlong": "40.8333,14.25"
  },
  {
    "city": "Zhaodong",
    "state": "Heilongjiang",
    "country": "China",
    "latlong": "46.0635,125.9773"
  },
  {
    "city": "Xibeijie",
    "state": "Gansu",
    "country": "China",
    "latlong": "39.737,98.5049"
  },
  {
    "city": "Kirkuk",
    "state": "Kirkūk",
    "country": "Iraq",
    "latlong": "35.4667,44.4"
  },
  {
    "city": "Huilong",
    "state": "Jiangsu",
    "country": "China",
    "latlong": "31.8131,121.6574"
  },
  {
    "city": "Tongjin",
    "state": "Gyeonggi",
    "country": "Korea, South",
    "latlong": "37.2361,127.2011"
  },
  {
    "city": "Oklahoma City",
    "state": "Oklahoma",
    "country": "United States",
    "latlong": "35.4676,-97.5136"
  },
  {
    "city": "Toulouse",
    "state": "Occitanie",
    "country": "France",
    "latlong": "43.6045,1.444"
  },
  {
    "city": "Denizli",
    "state": "Denizli",
    "country": "Turkey",
    "latlong": "37.7731,29.0878"
  },
  {
    "city": "Dispur",
    "state": "Assam",
    "country": "India",
    "latlong": "26.15,91.77"
  },
  {
    "city": "Coimbatore",
    "state": "Tamil Nādu",
    "country": "India",
    "latlong": "11,76.9667"
  },
  {
    "city": "Luocheng",
    "state": "Guangdong",
    "country": "China",
    "latlong": "22.7645,111.5745"
  },
  {
    "city": "Guwāhāti",
    "state": "Assam",
    "country": "India",
    "latlong": "26.1667,91.7667"
  },
  {
    "city": "Shima",
    "state": "Fujian",
    "country": "China",
    "latlong": "24.4475,117.8118"
  },
  {
    "city": "Sŏngnam",
    "state": "Gyeonggi",
    "country": "Korea, South",
    "latlong": "37.4386,127.1378"
  },